year,dispnum,midloc2_location,midloc2_measuringpoint,midloc2_xlongitude,midloc2_ylatitude,midloc2_precision,midloc2_howobtained,midloc2_precision_comment,midloc2_general_comment,priogrid_cell,midloc11_location,midloc11_midlocmeasuringpoint,midloc11_latitude,midloc11_longitude,midloc11_precision
1902,2,Canada-United States (Alaska [ADM1]) Border,Midpoint of shared (subnational) border,-138.67,59.8283,5,ArcGIS and GADM,Point along a line,,215363,Alaska-Canadian border,"Juneau, Alaska",58.5092,-134.689,4
1913,3,Austria-Yugoslavia Border,Midpoint of shared (national) border,14.911,46.6223,5,ArcGIS and cShapes,Point along a line,Uses 1955 data,196950,Austria's border with Serbia,"Belgrade, Yug",44.8119,20.4656,4
1946,4,Straits of Corfu,Straits of Corfu,19.97,39.77,3,latlong.net,Strait,,186880,Corfu Channel,"Kerkira, GRC",39.62,19.9197,4
1951,7,Suez Canal,Timsah Lake,32.2909,30.5735,5,latlong.net,Point along a line,,173945,Suez canal zone,"Suez canal, UAR",29.9167,32.55,4
1856,8,"Tehran, Iran","Tehran, Iran",51.389,35.6892,8,latlong.net,Capital,,181183,Iran,"Tehran, IRN",35.6719,51.4244,5
1889,9,Mozambique Territorial Waters,Centroid of territorial waters,36.9704,-18.1918,3,ArcGIS and Marine Regions,Territorial waters,,103394,Waters off Mozambique,Maputo,-25.9653,32.5892,4
1938,11,Austria-Germany Border,Midpoint of shared (national) border,9.59932,47.5319,5,ArcGIS and cShapes,Point along a line,Uses 1955 data,198380,Austrian Border,Vienna,48.2,16.3667,4
1938,12,Czechoslovakia-Germany Border,Midpoint of shared (national) border,12.6784,50.4139,5,ArcGIS and cShapes,Point along a line,Uses 1955 data,201986,,ger-cze border,50.5,13,4
1863,13,Japan Territorial Waters,Southernmost point of territorial waters,135.592,34.0405,5,ArcGIS and Marine Regions,Point along a line,,179192,,S. japanese waters,32.13,129.78,5
1895,14,Constantinople,"Istanbul, Turkey",28.9784,41.0082,1,latlong.net,Precise location text,,189058,Constantinople,"Istanbul, TUR",41.0186,28.9647,1
1839,15,Canada (New Brunswick [ADM1])-United States (Maine [ADM1]) Border,Midpoint of shared (subnational) border,-67.7833,46.4598,5,ArcGIS and GADM,Point along a line,,196065,Maine-New Brunswick Border,"Fredericton, CAN",45.95,-66.6333,3
1897,16,Japan-South Korea Border (Territorial Waters),Midpoint of shared (territorial water) border,129.143,34.7672,5,ArcGIS and Marine Regions,Point along a line,,179899,,straits between jap and kor,35.33,130.38,5
1848,19,AUH-Venetian Border,Midpoint of shared (national) border,11.97,46.83,5,MIDLOC1.1,Point along a line,,196944,,md point of venetian-auh border,46.83,11.97,4
1945,20,Iran (Northern [> ADM1]),Centroid of > ADM1,52.376,36.1117,5,ArcGIS and GADM,> ADM1,,181905,Northern Iran,"Ardebil, Iran",38.2494,48.3014,3
1912,21,AUH-Serbia Border,Midpoint of shared (national) border,19,45.89,5,MIDLOC1.1,Point along a line,,195519,,md point of serb-auh border,45.89,19,4
1940,22,"Riga, Latvia","Riga, Latvia",24.1052,56.9496,8,latlong.net,Capital,,211369,Latvia,"Riga, Latvia",56.95,24.1,5
1939,23,Estonia-Russia Border,Midpoint of shared (national) border,27.508,58.5314,5,ArcGIS and cShapes,Point along a line,Uses 1991 data,214256,Soviet/Estonian border,"Merimae, Estonia",57.6956,27.4608,4
1831,25,Belgium-Netherlands Border,Midpoint of shared (national) border,5.7297,51.193,5,ArcGIS and cShapes,Point along a line,Uses 1946 data,203412,,md point of NTH-BEL border,51.42,5.279,4
1948,26,"Berlin, Germany","Berlin, Germany",13.405,52.52,1,latlong.net,Precise location text,,205587,.,berlin,52.52,13.38,1
1961,27,"Berlin, Germany","Berlin, Germany",13.405,52.52,1,latlong.net,Precise location text,,205587,.,berlin,52.52,13.38,1
1961,28,"Bizerte, Tunisia","Bizerte, Tunisia",9.86272,37.2746,1,latlong.net,Precise location text,,183260,"Bizerte,Tunisia","Bizerte, Tunisia",37.2744,9.87389,1
1908,30,"Sarajevo, Bosnia","Sarajevo, Bosnia",18.4131,43.8563,8,latlong.net,Capital,,192637,Bosnia,Sarajevo,43.85,18.3833,5
1900,31,Manuchurian Empire,Centroid of ADM0,105.7,37.33,6,MIDLOC1.1,State,,183452,,md point of manchurian empire,37.33,105.7,5
1837,38,"Navy Island, Niagara","Navy Island, Niagara",-79.0108,43.0578,2,latlong.net,Island,,191722,Niagara River,navy island,43.05,-79.0167,4
1928,40,China (Shandong [ADM1]),Centroid of ADM1,118.151,36.352,4,ArcGIS and GADM,ADM1,,182037,Shantung Province Manchuria,Tsinan,36.6683,116.997,3
1929,41,"Harbin, China","Harbin, China",126.535,45.8038,1,latlong.net,Precise location text,,195734,"Harbin, North Manchuria","Harbin, China",45.75,126.65,1
1897,43,"Jiaozhou, China","Jiaozhou, China",120.006,36.2859,1,latlong.net,Precise location text,,182041,Kiaochau,"Kiachow, China",38.0258,110.48,1
1953,50,Taiwan Strait,Taiwan Strait,119.698,24.6581,3,latlong.net,Strait,,165480,,taiwan straits,24.61,119.9,5
1950,51,"Kaesong, South Korea","Kaesong, South Korea",126.677,37.9558,1,latlong.net,Precise location text,,184214,.,"kaesong, s korea",37.96,126.57,1
1956,53,Taiwan Strait,Taiwan Strait,119.698,24.6581,3,latlong.net,Strait,,165480,Taiwan Straits,Taiwan Straits,24,119,5
1923,55,"Corfu, Greece","Corfu, Greece",19.9217,39.6243,3,latlong.net,ADM2 like,,186880,Corfu,"Corfu, Greece",39.4533,19.9197,5
1897,56,Aegean Sea,Aegean Sea,25.2686,39.0192,5,latlong.net,Sea,,186171,,md point of aegean sea,38.96,25.11,5
1853,57,Ottoman-Russia Border,Midpoint of shared (national) border,28.93,47.88,5,MIDLOC1.1,Point along a line,,198418,,md point of ottoman-russian border,47.88,28.93,4
1962,61,Cuba-United States Border (Territorial Waters),Midpoint along shortest line between territorial waters,-81.9004,23.8593,5,ArcGIS and Marine Regions,Point along a line,,163637,,waters off of cuba,22.74,-75.58,4
1826,64,"Galati, Romania","Galati, Romania",28.008,45.4353,5,latlong.net,> ADM1,,194817,Danubian Principalities,"Galati, Romania",45.45,28.05,3
1883,65,Danube River,Midpoint of river,22.3676,44.6953,5,ArcGIS and Natural Earth Data,Point along a line,,194085,Danube region,"Belgrade, Yug",44.8119,20.4656,3
1934,67,Czechoslovakia-Germany Border,Midpoint of shared (national) border,12.6784,50.4139,5,ArcGIS and cShapes,Point along a line,Uses 1955 data,201986,,md point of cze-ger border,50.81,14.1,4
1900,68,Dominican Republic,Midpoint of coastline,-68.5066,18.7553,5,ArcGIS and cShapes,Point along a line,Uses 1946 data,156463,,md point of dom coast,18.67,-68.26,4
1914,69,"Puerto Plata, Dominican Republic","Puerto Plata, Dominican Republic",-70.6871,19.7808,1,latlong.net,Precise location text,,157899,"Dominican Republic, Puerto Plata",Puerto Plata,19.8,-70.6833,1
1850,71,"Piraeus, Greece","Piraeus, Greece",23.647,37.943,1,latlong.net,Precise location text,,184008,"Piraeus, Greece","Piraeus, GRC",37.95,23.6333,1
1898,77,"Kodok, Sudan","Kodok, Sudan",32.1093,9.89407,1,latlong.net,Precise location text,,143705,"Fashoda, Sudan",Fashoda,9.88333,32.1167,1
1847,78,"Ferrara, Italy","Ferrara, Italy",11.6198,44.8381,1,latlong.net,Precise location text,,194064,"Ferrara, Papal States",Ferrara,46.7228,12.1342,1
1907,86,Morocco,Midpoint of coastline,-8.34876,33.3276,5,ArcGIS and cShapes,Point along a line,Uses 1958 data,177464,,md point MOR coast,33.72,-7.27,4
1870,88,France-Germany Border,Midpoint of shared (national) border,7.81941,49.0463,5,ArcGIS and cShapes,Point along a line,Uses 1955 data,200536,,md point FRA border with GER states,49,8.31,4
1822,89,France-Spain Border,Midpoint of shared (national) border,0.514845,42.6924,5,ArcGIS and cShapes,Point along a line,Uses 1946 data,191162,,md point FRA-SPN border,42.67,0.61,4
1887,91,"Ankara, Turkey","Ankara, Turkey",32.8597,39.9334,8,latlong.net,Capital,,186906,Turkey,Ankara,39.935,32.8642,5
1964,92,Libreville,"Libreville, Gabon",9.46727,0.416198,1,latlong.net,Precise location text,,129979,Libreville,"Libreville, Gabon",0.383333,9.45,1
1909,95,"Port-au-Prince, Haiti","Port-au-Prince, Haiti",-72.3074,18.5944,5,latlong.net,Point along a line,,156456,Haitian Ports (Port-au-Prince),Port au Prince,18.5392,-72.335,4
1886,96,Rio-Antirio Bridge,Rio-Antirio Bridge,21.7737,38.3206,2,latlong.net,Near,,184724,,entry to corinthian straits,38.24,21.47,4
1914,100,"Port-au-Prince, Haiti","Port-au-Prince, Haiti",-72.3074,18.5944,8,latlong.net,Capital,,156456,Haiti,Port au Prince,18.5392,-72.335,5
1880,104,China (Illi Kazakh Autonomous Prefecture [ADM2]),Centroid of ADM2,82.0989,43.4509,3,ArcGIS and GADM,ADM2,,192045,"Ili region, Xinjiang","Ili, Kazakhstan",43.8733,77.1844,3
1895,106,Japan (Hokkaido)-Russia (Sakhalin) Border (Territorial Waters),Midpoint of shared (territorial water) border,142.007,45.7095,5,ArcGIS and Marine Regions,Point along a line,,195765,,between sakhalin and hokkaido,45.71,142.11,5
1939,108,"Tirana, Albania","Tirana, Albania",19.8187,41.3275,8,latlong.net,Capital,,189040,Albania,"Tirana, Albania",41.3275,19.8189,5
1904,109,Austria-Italy Border,Midpoint of shared (national) border,12.215,47.0873,5,ArcGIS and cShapes,Point along a line,Uses 1955 data,197665,Italian-Austrian Border,"Brennner Pass, Italy",47,11.5,4
1934,111,"Walwal, Abys","Walwal, Abys",45.4,7.05,1,MIDLOC1.1,Precise location text,,140131,.,"walwal, abys",7.05,45.4,1
1860,112,Papal States,Midpoint of Papal States,43.18,13.08,5,MIDLOC1.1,> ADM1,,148767,,md point of papal states,43.18,13.08,3
1860,113,Kingdom of Two Sicilies,Midpoint of Kingdom of Two Sicilies,40.34,15.94,5,MIDLOC1.1,> ADM1,,152361,,md point of kingdom of two sicilies,40.34,15.94,3
1911,114,"Tripoli, Libya","Tripoli, Libya",13.1913,32.8872,1,latlong.net,Precise location text,,176787,Tripoli,"Tripoli, Libya",32.8925,13.18,1
1859,115,AUH-Venetian Border,Midpoint of shared (national) border,11.97,46.83,5,MIDLOC1.1,Point along a line,,196944,,md point of venetian-auh border,46.83,11.97,4
1885,119,"Panjdeh, Afghanistan","Panjdeh, Afghanistan",61.5667,31.7333,1,latlong.net,Precise location text,,175444,"Penjdeh,Afghanistan",Vakhan,36.9167,72.3,3
1853,121,Dardanelles Strait,Dardanelles Strait,26.3013,40.0482,3,latlong.net,Strait,,187613,Dardanelles Strait,Dardanelles Strait,40.25,26.4167,4
1961,122,Iraq-Kuwait Border,Midpoint of shared (national) border,47.0836,29.8809,5,ArcGIS and cShapes,Point along a line,,172535,,md point of IRQ-KUW border,29.7,47.24,4
1845,123,Argentina,Midpoint of coastline,-63.6589,-42.2343,5,ArcGIS and cShapes,Point along a line,Uses 1946 data,68633,,md point of ARG coast,-36.96,-56.63,4
1958,125,Suez Canal,Timsah Lake,32.2909,30.5735,5,latlong.net,Point along a line,,173945,,suez canal,29.95,32.51,2
1853,126,AUH-Ottoman Border,Midpoint of shared (national) border,22.63,45.39,5,MIDLOC1.1,Point along a line,,194806,,md point of ottoman and AUH borders,45.39,22.63,4
1921,127,"Belgium, France, Germany Border",Point along shared noncontiguous border nearest midpoint of contiguous border including neighbors,6.79061,49.1655,5,ArcGIS and GADM,Point along a line,,200534,,md point GER border with FRA/BEL,49.43,6.69,4
1905,128,Ottoman Empire,Midpoint of coastline,27.06,38.39,5,MIDLOC1.1,Point along a line,,184735,,md point of ottoman coast,38.39,27.06,4
1931,129,"Harbin, China","Harbin, China",126.535,45.8038,5,latlong.net,> ADM1,,195734,Manchuria,"Harbin, China",45.75,126.65,3
1899,131,North Korea-Russia Border (Territorial Waters),Midpoint of shared (territorial water) border,130.792,42.2199,5,ArcGIS and Marine Regions,Point along a line,,190702,,usr/kor border-by coast,42.297,130.633,2
1923,133,"Memel, Lithuania","Memel, Lithuania",21.1443,55.7033,1,latlong.net,Precise location text,,209923,.,"memel, lithuania",55.5,21.5,1
1939,134,Memel,"Memel, Lithuania",21.1443,55.7033,1,latlong.net,Precise location text,,209923,Memel,"Memel, Lithuania",55.5,21.5,1
1861,135,"Veracruz, Mexico","Veracruz, Mexico",-96.1342,19.1738,1,latlong.net,Precise location text,,157128,.,"veracruz, mexico",19.333,-96.666,1
1913,136,"Veracruz, Mexico","Veracruz, Mexico",-96.1342,19.1738,1,latlong.net,Precise location text,,157128,"Veracruz, Mexico",Veracruz,31.4472,-112.358,1
1831,137,"Porto, Portugal","Porto, Portugal",-8.6291,41.1579,1,latlong.net,Precise location text,,188983,"Oporto, Portugal",Porto,41.15,-8.61667,1
1934,139,"China (Hebei [ADM1], Inner Mongolia Autonomous Prefecture [ADM1], and Liaoning [ADM1])",Centroid of > ADM1,115.008,43.2777,5,ArcGIS and GADM,> ADM1,"Jehol is a historic province, now appears split across, at least, three provinces",192111,Jehol province,"Chengteh, China",40.9725,118.17,3
1880,141,"Dubrovnik, Croatia","Dubrovnik, Croatia",18.0944,42.6507,2,latlong.net,Near,,191197,,"ragusa, ott emp",42.5,18.1,2
1821,142,"Galati, Romania","Galati, Romania",28.008,45.4353,5,latlong.net,> ADM1,,194817,Danubian Principalities,"Galati, Romania",45.45,28.05,3
1854,144,"Greytown, Nicaragua","Greytown, Nicaragua",-83.7345,10.9462,1,latlong.net,Precise location text,,144913,"Greytown, Nicaragua",Greytown,10.9167,-83.7,1
1927,145,"Shanghai, China","Shanghai, China",121.474,31.2304,1,latlong.net,Precise location text,,174843,.,shanghai,31.2,121.5,1
1827,146,Ottoman Empire,Midpoint of coastline,27.06,38.39,5,MIDLOC1.1,Point along a line,,184735,,md point of ottoman coast,38.39,27.06,4
1821,147,"Rieti, Italy","Rieti, Italy",12.8567,42.4045,1,latlong.net,Precise location text,,190466,"Rieti, Italy (Papal States)",Rieti,42.4,12.85,1
1959,148,China-Nepal Border,Midpoint of shared (national) border,84.5921,28.7093,5,ArcGIS and cShapes,Point along a line,,171170,Nepal/China Border,"zhabdun, china",29.65,84.1667,4
1856,149,"Neuchatel, Switzerland","Neuchatel, Switzerland",6.92927,46.99,1,latlong.net,Precise location text,,196934,"Neuchatel, SWZ",Neuchatel,47,6.96667,1
1926,151,"Bluefields, Nicaragua","Bluefields, Nicaragua",-83.7704,12.0111,1,latlong.net,Precise location text,,147073,"Bluefields, Nicaragua",Bluefields,12,-83.75,1
1896,152,Benin-Nigeria Border,Midpoint of shared (national) border,3.13833,9.21593,5,ArcGIS and cShapes,Point along a line,Uses 1960 data,142927,Nigeria-Dahomey border,"parakou, benin",9.35,2.61667,4
1833,153,Dardanelles Strait,Dardanelles Strait,26.3013,40.0482,3,latlong.net,Strait,,187613,,straits of dardanelles,40.2,26.6,4
1850,154,AUH-Germany Border,Midpoint of shared (national) border,49.12,49.12,5,MIDLOC1.1,Point along a line,,200619,,md point of GER AUH border,49.12,13.55,4
1906,156,"Taba, Egypt","Taba, Egypt",34.8969,29.4925,1,latlong.net,Precise location text,,171790,"Taba, border of Palestine and Sinai","Taba, Egypt",29.4864,34.9019,1
1937,157,"Beijing, China","Beijing, China",116.407,39.9042,8,latlong.net,Capital,,187073,China,"Beijing,",39.9289,116.388,5
1921,158,Costa Rica-Panama Border,Midpoint of shared (national) border,-82.7141,8.92902,5,ArcGIS and cShapes,Point along a line,Uses 1946 data,142035,,md point of border COS PAN,8.94,-82.53,4
1903,159,"Panama City, Panama","Panama City, Panama",-79.5199,8.98238,8,latlong.net,Capital,,142041,Panama,panama city,8.96667,-79.5333,5
1838,160,"Veracruz, Mexico","Veracruz, Mexico",-96.1342,19.1738,2,latlong.net,Near,,157128,East Coast of Mexico near Veracruz,Veracruz,31.4472,-112.358,4
1904,164,Morocco,Midpoint of coastline,-8.34876,33.3276,5,ArcGIS and cShapes,Point along a line,Uses 1958 data,177464,,md point MOR coast,33.72,-7.27,4
1911,165,Iran (Northern [> ADM1]),Centroid of > ADM1,52.376,36.1117,5,ArcGIS and GADM,> ADM1,,181905,Northern Iran,tabriz,38.08,46.2919,3
1908,166,Iran (Northern [> ADM1]),Centroid of > ADM1,52.376,36.1117,5,ArcGIS and GADM,> ADM1,,181905,Northern Iran,tabriz,38.08,46.2919,3
1821,167,Italy (Piedmont [ADM1]),Centroid of ADM1,7.92682,45.061,4,ArcGIS and GADM,ADM1,,194776,Piedmont,"Cuneo, Italy",44.3833,7.53333,3
1939,169,"Warsaw, Poland","Warsaw, Poland",21.0122,52.2297,8,latlong.net,Capital,,204883,Poland,Warsaw,52.25,21,5
1962,172,Taiwan Strait,Taiwan Strait,119.698,24.6581,3,latlong.net,Strait,,165480,,taiwan straits,24.61,119.9,5
1958,173,Taiwan Strait,Taiwan Strait,119.698,24.6581,3,latlong.net,Strait,,165480,,taiwan straits,24.61,119.9,5
1936,174,"Belgium, France, Germany Border",Point along shared noncontiguous border nearest midpoint of contiguous border including neighbors,6.79061,49.1655,5,ArcGIS and GADM,Point along a line,,200534,,md point GER border with FRA/BEL,49.43,6.69,4
1849,175,"Rome, Italy","Rome, Italy",12.4964,41.9028,1,latlong.net,Precise location text,,189745,,rome,41.96,12.66,3
1922,177,France-Germany Border,Midpoint of shared (national) border,7.81941,49.0463,5,ArcGIS and cShapes,Point along a line,Uses 1955 data,200536,,md point of GER FRA border,49,8.36,4
1932,178,"Harbin, China","Harbin, China",126.535,45.8038,5,latlong.net,> ADM1,,195734,Manchuria,"Harbin, China",45.75,126.65,3
1939,179,"Helsinki, Finland","Helsinki, Finland",24.9384,60.1699,8,latlong.net,Capital,,216410,Finland,Helsinki,60.1756,24.9342,5
1903,180,"Lvshunkou, China","Lvshunkou, China",121.262,38.8517,1,latlong.net,Precise location text,,185643,,lushun (formerly port arthur),38.8,121.26,3
1935,182,"Khalkhgol, Mongolia","Khalkhgol, Mongolia",118.622,47.627,5,latlong.net,Point along a line,,198598,,Khalkhin Gol,47.92,117.8,5
1939,183,"Khalkhin Gol, Russia","Khalkhin Gol, Russia",44.2097,46.3164,1,latlong.net,Precise location text,,196289,.,Khalkhin Gol,47.92,117.8,1
1938,184,Tumen River,Midpoint of river,129.731,42.494,5,ArcGIS and Natural Earth Data,Point along a line,,190700,Tumen River,"Tumen, China",31.7667,104.1,4
1956,185,"Warsaw, Poland","Warsaw, Poland",21.0122,52.2297,8,latlong.net,Capital,,204883,Poland,Warsaw,52.25,21,5
1920,186,"Warsaw, Poland","Warsaw, Poland",21.0122,52.2297,8,latlong.net,Capital,,204883,Poland,Warsaw,52.25,21,5
1876,187,Balkan Peninsula,Balkan Peninsula,21.0937,41.8101,6,latlong.net,Peninsula,,189763,Balkans,"Sofia, Bulgaria",42.6833,23.3167,5
1827,189,"Galati, Romania","Galati, Romania",28.008,45.4353,5,latlong.net,> ADM1,,194817,Danubian Principalities,"Galati, Romania",45.45,28.05,3
1888,191,Unspecified,,,,-99,,Location unclear or unspecified,,0,.,,,,7
1863,194,Denmark-Germany Border,Midpoint of shared (national) border,8.98718,54.8973,5,ArcGIS and cShapes,Point along a line,Uses 1955 data,208458,,md point of border GER DEN,54.92,9.26,4
1893,196,"Bangkok, Thailand","Bangkok, Thailand",100.502,13.7563,1,latlong.net,Precise location text,,149602,.,Bangkok,13.91,100.61,1
1917,197,"Vladivostok, Russia","Vladivostok, Russia",131.887,43.1198,2,latlong.net,Near,,192144,,near Vladivostok,43.11,131.99,2
1848,198,Italy (Sicily [ADM1]),Centroid of ADM1,14.1467,37.5884,4,ArcGIS and GADM,ADM1,,183989,,md point of island of sicily,37.58,14.32,5
1961,199,India (Arunachal Pradesh [ADM1]),Centroid of ADM1,94.6767,28.039,4,ArcGIS and GADM,ADM1,,170470,NEFA,"Nefa, India",28,94.5,3
1955,200,Egypt-Israel Border,Midpoint of shared (national) border,34.6071,30.3694,5,ArcGIS and cShapes,Point along a line,,173230,,md point of ISR-EGY border,30.37,34.7,4
1883,202,"Beijing, China","Beijing, China",116.407,39.9042,8,latlong.net,Capital,,187073,China,Beijing,39.9289,116.388,5
1959,203,"Lang-Chiu, India","Lang-Chiu, India",93.55,28.6333,1,latlong.net,Precise location text,,171188,NEFA(Longju),"Longju, India",28.6333,93.55,3
1858,207,Gulf of Mexico,Gulf of Mexico,-90.0659,25.3043,4,latlong.net,Gulf,,165780,Gulf of Mexico,Center of Gulf,25,-90,5
1953,208,Czechoslovakia-West Germany Border,Midpoint of shared (national) border,12.7928,49.3429,5,ArcGIS and cShapes,Point along a line,Uses 1955 data,200546,,md point of w ger-cze border,49.36,13.21,4
1936,210,"Guadalajara, Spain","Guadalajara, Spain",-3.16017,40.6325,2,latlong.net,Near,,188274,,"near Guadalajara, spn",40.51,-2.96,2
1920,211,France-Germany Border,Midpoint of shared (national) border,7.81941,49.0463,5,ArcGIS and cShapes,Point along a line,Uses 1955 data,200536,,md point of GER FRA border,49,8.36,4
1888,212,Unspecified,,,,-99,,Location unclear or unspecified,,0,.,,,,7
1840,217,Unspecified,,,,-99,,Location unclear or unspecified,,0,.,,,,7
1870,220,"Tianjin, China","Tianjin, China",117.362,39.3434,1,latlong.net,Precise location text,,186355,.,"tianjin, china",39.13,117.2,1
1865,224,Japan,Centroid of Japan,139.272,36.6507,6,ArcGIS and cShapes,State,Uses 1952 data,182799,,japan,36.21,138.93,5
1861,225,Bahama Channel,Bahama Channel,-78.4003,22.7672,3,MIDLOC1.1 and latlong.net,Channel,,162204,Bahama Channel,"Arch. De Camaguey, Cuba",22.3,-78,4
1861,227,Japan-Russia Border (Territorial Waters),Midpoint of shared (territorial water) border,142.007,45.7095,5,ArcGIS and Marine Regions,Point along a line,,195765,,japanese waters off USR,45.02,140.02,5
1881,228,"Tunis, Tunisia","Tunis, Tunisia",10.1815,36.8065,8,latlong.net,Capital,,182541,Tunisia,Tunis,36.8028,10.1797,5
1919,230,Turkey (Antalya [ADM1]),Centroid of ADM1,30.9203,36.7984,4,ArcGIS and GADM,ADM1,,182582,"Adalia, SW Turkey",Adalia,36.8833,30.7,3
1849,231,"Livorno, Italy","Livorno, Italy",43.5485,10.3106,1,latlong.net,Precise location text,,144448,Livorno,"Livorno, Italy",43.55,10.3167,1
1940,235,"Mers-el-Kebir, Algeria","Mers-el-Kebir, Algeria",-0.710527,35.7222,1,latlong.net,Precise location text,,181079,"Mers-el-Kebir, Algeria","Mers-el-Kebir, Algeria",35.7333,-0.716667,1
1849,236,USR-Ottoman Border,Midpoint of shared (national) border,29.65,46.87,5,MIDLOC1.1,Point along a line,,196980,,md point border between USR and Ott empire,46.87,29.65,4
1899,237,Delagoa Bay,Delagoa Bay,32.7633,-26.0828,3,latlong.net,Bay,,91866,Delagoa Bay,"Delagoa Bay, Mozambique",-25.9833,32.7,3
1913,238,"Puerto Barrios, Guatemala","Puerto Barrios, Guatemala",-88.5855,15.6954,2,latlong.net,Near,,152103,"off Puerto Barrios, Guatemala",Puerto Barrios,15.7167,-88.6,2
1923,241,Artic Ocean near Murmansk,"Murmansk, Russia",33.0827,68.9585,2,latlong.net,Near,,228667,Artic Ocean near Murmansk,"Murmansk coast, Russia",68.6667,37.5,2
1904,242,Dogger Bank,Dogger Bank,3,55,3,latlong.net,Bank,,209167,"Dogger Bank, North Sea","Dogger Bank, North Sea",55,3,4
1960,246,Cuba,Centroid of ADM0,-79.0364,21.6212,6,ArcGIS and cShapes,State,,160762,,cuba,21.8,-78.7,5
1905,247,Dominican Republic Territorial Waters,Centroid of territorial waters,-70.0869,18.1209,3,ArcGIS and Marine Regions,Territorial waters,,155740,Coast off Dominican Republic,Santo Domingo,18.4667,-69.9,4
1932,248,Manchuria,Manchuria,125.82,46.54,6,MIDLOC1.1,State,,197172,,manchuria,46.54,125.82,5
1910,249,Nicaragua (eastern) Territorial Waters,Centroid of territorial waters,-83.0714,11.8735,3,ArcGIS and Marine Regions,Territorial waters,,146354,Caribbean coast off Nicaragua,"La Barra, Nic",12.9,-83.5333,4
1945,252,Russia-Turkey Border,Midpoint of shared (national) border,43.5541,41.0004,5,ArcGIS and cShapes,Point along a line,Uses 1946 data,189088,,md point of TUR-USR border,40.924,43.861,4
1960,253,Afghanistan-Russia (Tajikistan [ADM1]),Midpoint of shared (subnational) border,71.3779,37.9037,5,ArcGIS and cShapes,Point along a line,Uses 1991 data,184103,,USR border close to PAK,36.996,72.64,4
1902,254,Venezuela,Midpoint of coastline,-63.8722,10.6422,5,ArcGIS and cShapes,Point along a line,Uses 1946 data,144953,,venezuela cost,10.23,-64.71,4
1873,256,"Guantanamo Bay, Cuba","Guantanamo Bay, Cuba",-75.1216,20.0117,2,latlong.net,Near,,158610,,"guantanamo bay, cuba",20.08,-75.15,2
1914,257,AUH-Serbia Border,Midpoint of shared (national) border,19.54,46.08,5,MIDLOC1.1,Point along a line,,196240,,md point of AUH-SERB border,46.08,19.54,4
1939,258,East Prussia-Poland Border,Midpoint of shared (national) border,21.627,54.398,5,MIDLOC1.1,Point along a line,,207764,,md point of border between POL and E. Prussia,54.398,21.627,4
1956,259,Aden-Yemen Border,Midpoint of shared (national) border,45.0333,12.8,5,MIDLOC1.1,Point along a line,,148051,Border of Yemen/Aden Protectorate,Aden directorate,12.8,45.0333,4
1914,260,China (Shandong [ADM1]),Centroid of ADM1,118.151,36.352,4,ArcGIS and GADM,ADM1,,182037,Shantung Province,Shantung Province,36,119,3
1865,261,AUH-Germany Border,Midpoint of shared (national) border,50.449,12.907,5,MIDLOC1.1,Point along a line,,148061,,md point of AUH border with GER states,50.449,12.907,4
1944,262,Bulgaria,Centroid of ADM0,25.2315,42.7614,6,ArcGIS and cShapes,State,Uses 1946 data,191211,,Bulgaria,42.6,25.31,5
1835,301,Caribbean Sea,Caribbean Sea,-74.9676,14.5401,5,latlong.net,Sea,,150691,Carribean,"Kingston, Jamaica",18,-76.8,5
1854,304,"Sambir, Ukraine","Sambir, Ukraine",23.2066,49.5207,4,latlong.net,ADM1 like,,201287,"Galicia, Transylvania","Sambir, Ukraine",49.5167,23.2,3
1860,306,"Rome, Italy","Rome, Italy",12.4964,41.9028,1,latlong.net,Precise location text,,189745,Rome in Central Italy,Rome,41.9,12.4833,1
1877,307,"Valetta, Malta","Valetta, Malta",14.5146,35.8989,8,latlong.net,Capital,,181110,Malta,"Valetta, Malta",35.8997,14.5147,5
1898,309,China Territorial Waters,Centroid of territorial waters,120.175,25.5996,3,ArcGIS and Marine Regions,Territorial waters,,166921,Chinese coast,"Hsiamen, China",27.1,120.317,4
1905,310,Caribbean Sea,Caribbean Sea,-74.9676,14.5401,5,latlong.net,Sea,,150691,Caribbean Sea,Caribbean Sea,15,-75,5
1908,311,"Tripoli, Libya","Tripoli, Libya",13.1913,32.8872,1,latlong.net,Precise location text,,176787,"Tripoli, Libya","Tripoli, Libya",32.8925,13.18,1
1910,312,"Tripoli, Libya","Tripoli, Libya",13.1913,32.8872,2,latlong.net,Near,,176787,Waters off Tripoli,"Tripoli, Libya",32.8925,13.18,2
1910,313,Iran (Southern [> ADM1]),Centroid of > ADM1,57.0465,28.6641,5,ArcGIS and GADM,> ADM1,,171115,Southern Iran,Sirjan,26.2333,59.0333,3
1911,314,Albania Territorial Waters,Centroid of territorial waters,19.34,40.8251,3,ArcGIS and Marine Regions,Territorial waters,,188319,"Albania, Adriatic Sea",Durres,41.3231,19.4414,5
1911,315,France-Germany Border,Midpoint of shared (national) border,7.81941,49.0463,5,ArcGIS and cShapes,Point along a line,Uses 1955 data,200536,,md point of GER FRA border,49,8.36,4
1912,316,"Tunis, Tunisia","Tunis, Tunisia",10.1815,36.8065,2,latlong.net,Near,,182541,Off the coast of Tunis,"Gulf of Tunis, Tunisia",37,10.5,2
1912,317,Bulgaria,Centroid of ADM0,25.2315,42.7614,6,ArcGIS and cShapes,State,Uses 1946 data,191211,,Bulgaria,42.6,25.31,5
1914,320,"Leuven, Belgium","Leuven, Belgium",4.70052,50.8798,1,latlong.net,Precise location text,,202690,,"Leuven, BEL",50.88,4.7,4
1916,321,Mexico-United States Border,Midpoint of shared (national) border,-105.809,31.2332,5,ArcGIS and cShapes,Point along a line,Uses 1946 data,174389,US-MEX border,mid pt on border,31.2192,-105.938,4
1916,322,"Santo Domingo, Dominican Republic","Santo Domingo, Dominican Republic",-69.9312,18.4861,8,latlong.net,Capital,,155741,Dominican Republic,Santo Domingo,18.4667,-69.9,5
1916,323,Greece,Midpoint of coastline,23.1314,37.79,5,ArcGIS and cShapes,Point along a line,Uses 1946 data,184007,,md point of GRE coast,36.63,23.17,4
1915,324,Greece (Crete [ADM1]),Centroid of ADM1,24.8447,35.2293,4,ArcGIS and GADM,ADM1,,180410,,"crete, GRE",35.31,25.02,3
1920,327,"Istanbul, Turkey","Istanbul, Turkey",28.9784,41.0082,1,latlong.net,Precise location text,,189058,.,Istanbul,41.02,28.96,1
1922,328,"Istanbul, Turkey","Istanbul, Turkey",28.9784,41.0082,1,latlong.net,Precise location text,,189058,.,Istanbul,41.02,28.96,1
1937,336,Algeria Territorial Waters,Centroid of territorial waters,3.21438,36.9211,3,ArcGIS and Marine Regions,Territorial waters,,182527,Off Coast of Algeria,Algiers,36.7631,3.05055,4
1938,337,Unspecified,,,,-99,,Location unclear or unspecified,,0,.,,,,7
1940,339,Pacific Ocean,Pacific Ocean,-124.509,-8.78319,6,latlong.net,Ocean,,116751,Pacific Ocean,mid pt of ocean,1.84083,-157.767,5
1966,343,Amur River,Midpoint of river,132.169,47.6919,5,ArcGIS and Natural Earth Data,Point along a line,,198625,Amur and Ussuri Rivers,"Amur River, Russia",52.9333,141.167,4
1967,345,Unspecified,,,,-99,,Location unclear or unspecified,,0,.,,,,7
1968,346,Czechoslovakia-Russia Border,Midpoint of shared (national) border,22.3523,48.7316,5,ArcGIS and cShapes,Point along a line,,199845,,md point of USR-CZE border,48.78,22.56,4
1968,347,Sea of Japan,Sea of Japan,135,38.8488,5,latlong.net,Sea,,185671,Sea of Japan,Japan Sea,43.5,135.75,5
1969,349,Amur River,Midpoint of river,132.169,47.6919,5,ArcGIS and Natural Earth Data,Point along a line,,198625,Amur and Ussuri Rivers,"Amur River, Russia",52.9333,141.167,4
1969,350,Peru Territorial Waters,Centroid of territorial waters,-78.7418,-9.0983,3,ArcGIS and Marine Regions,Territorial waters,,116123,Peruvian coastal waters,Lima,-12.05,-77.05,4
1969,352,"Rangoon, Burma","Rangoon, Burma",96.1951,16.8661,8,latlong.net,Capital,,153913,Burma,"Rangoon, Burma",16.7833,96.1667,5
1973,353,Unspecified,,,,-99,,Location unclear or unspecified,,0,.,,,,7
1972,354,Iceland Territorial Waters,Point along territorial waters nearest North Sea,-12.8121,64.5558,5,"ArcGIS, latlong.net, and Marine Regions",Point along a line,,222815,North Sea-off of Iceland,"Hvalnes, Iceland",64.4,-14.55,4
1974,355,Paracel Islands,Paracel Islands,112.25,16.5,5,latlong.net,Island,,153225,Paracel Island,Paracel Islands,16.5,112.25,3
1975,356,Cambodia Territorial Waters,Centroid of territorial waters,102.786,10.4762,3,ArcGIS and Marine Regions,Territorial waters,,144566,Waters off Cambodia,Chhung O,12.6,106.517,4
1975,358,India (Tawang [ADM2]),Centroid of ADM2,91.9183,27.6557,3,ArcGIS and GADM,ADM2,,169744,NEFA Twang Tract,"tawang, india",27.6731,92.1647,3
1975,360,Belize-Guatemala Border,Midpoint of shared (national) border,-89.1656,16.6986,5,ArcGIS and cShapes,Point along a line,uses 1981 data.,153542,Belize-Guatemalan border,"Barranco, Belize",16,-88.9167,4
1976,361,Djibouti,Centroid of ADM0,42.5778,11.7497,6,ArcGIS and cShapes,State,Uses 1977 data; Protectorate name for Djibouti,146606,"Afars and Issas, Djibouti","Djibouti, Djibouti",11.595,43.1481,1
1976,362,North Korea-South Korea Border,Midpoint of shared (national) border,127.507,38.3093,5,ArcGIS and cShapes,Point along a line,,184936,,PRK-KOR border,38.27,127.3,4
1976,363,Falkland Islands,Falkland Islands,-59.5236,-51.7963,3,latlong.net,Island,,54961,Falkland Islands,Falkland Islands,-51.75,-59,5
1974,364,China (Xinjiang [ADM1]),Centroid of ADM1,85.2036,41.112,4,ArcGIS and GADM,ADM1,,189171,Xinjiang Province,"Xinjiang, China",35.6128,111.218,3
1976,365,Japan (Hokkaido [ADM1]),Centroid of ADM1,142.552,43.3857,4,ArcGIS and GADM,ADM1,,192166,"Hokkaido, Japan Kurile Islands","Hokkaido, Japan",44,143,3
1821,366,France-Spain Border,Midpoint of shared (national) border,0.514845,42.6924,5,ArcGIS and cShapes,Point along a line,Uses 1946 data,191162,Franco-Spanish border,"San Sebastien, Spain",43.6333,-7.8,4
1828,367,Egypt,Centroid of ADM0,29.872,26.4943,6,ArcGIS and cShapes,State,Uses 1946 data,167460,"Morea, Egypt",center pt of egypt,26.1758,30.1525,5
1832,368,Belgium-Germany Border,Midpoint of shared (national) border,6.22042,50.6376,5,ArcGIS and cShapes,Point along a line,Uses 1955 data,202693,,md point of BEL-GER border,50.458,6.489,4
1830,370,France-Germany Border,Midpoint of shared (national) border,7.81941,49.0463,5,ArcGIS and cShapes,Point along a line,Uses 1955 data,200536,,md point of border between FRN & GER states,49.018,8.337,4
1842,371,Unspecified,,,,-99,,Location unclear or unspecified,,0,.,,,,7
1846,373,United States (Oregon [ADM1]),Midpoint of coastline,-124.076,44.7716,5,ArcGIS and GADM,Point along a line,,193792,Pacific Ocean off Oregon,OR coastline,42.7858,-124.667,4
1848,374,"Rome, Italy","Rome, Italy",12.4964,41.9028,1,latlong.net,Precise location text,,189745,,rome,41.96,12.66,3
1848,375,Germany-Denmark Border,Midpoint of shared (national) border,8.98718,54.8973,5,ArcGIS and cShapes,Point along a line,Uses 1955 data,208458,,GER-DEN border,54.926,9.272,4
1852,377,Dardanelles Strait,Dardanelles Strait,26.3013,40.0482,3,latlong.net,Strait,,187613,"Dardanelles, Turkey",Dardanelles Strait,40.25,26.4167,4
1898,378,China (Illi Kazakh Autonomous Prefecture [ADM2]),Centroid of ADM2,82.0989,43.4509,3,ArcGIS and GADM,ADM2,,192045,Ili Valley,"Ili, Kazakhstan",45.4,74.1333,3
1898,379,"Kwangchow Wan, China","Kwangchow Wan, China",113.245,23.1448,1,latlong.net,Precise location text,,163307,Kuangchow,"Kwangchow Wan, China",21.1,110.467,1
1856,380,Gulf of Mexico,Gulf of Mexico,-90.0659,25.3043,4,latlong.net,Gulf,,165780,Gulf of Mexico,Center of Gulf,25,-90,5
1864,381,Germany (Schleswing-Holstein [ADM1]),Centroid of ADM1,9.81008,54.1829,4,ArcGIS and GADM,ADM1,,207740,Schleswing-Holstein,"Schleswing-Holstein, Germany",54,10.5,3
1898,391,Unspecified,,,,-99,,Location unclear or unspecified,,0,.,,,,7
1914,394,"Tirana, Albania","Tirana, Albania",19.8187,41.3275,8,latlong.net,Capital,,189040,Albania,Tirana,41.3275,19.8189,5
1916,395,Portugal,Centroid of ADM0,-8.56274,39.601,6,ArcGIS and cShapes,State,Dual event; ADM1s not contiguous; Uses 1946 data,186823,"Lisbon, Oporto","Oporto, Portugal",41.15,-8.61667,1
1916,396,Hungary-Romania Border,Midpoint of shared (national) border,21.6287,46.9048,5,ArcGIS and cShapes,Point along a line,Uses 1946 data,196964,Border,ROM border,47.0889,21.7694,4
1914,397,Bulgaria-Yugoslavia Border,Midpoint of shared (national) border,22.5318,42.8794,5,ArcGIS and cShapes,Point along a line,Uses 1946 data,191206,,md point of BUL-YUG border,42.94,22.95,4
1915,398,North Sea,North Sea,3.51563,56.511,5,latlong.net,Sea,,211328,North Sea,North Sea,55.3333,3,5
1916,399,Between Atlantic Ocean and North Sea,Dividing Line,4,61.0283,6,MIDLOC1.1,Ocean,,217809,"Atlantic Ocean, North Sea]",line between AO & NS,61.0283,-4.23833,4
1917,400,Brazil,Midpoint of coastline,-37.9329,-4.30799,5,ArcGIS and cShapes,Point along a line,Uses 1946 data,123405,Coast of Brazil,mid pt on brazilian coast,-10.3231,-36.3331,4
1931,407,"Wal Wal, Chad","Wal Wal, Chad",14.1,14.36,1,latlong.net,Precise location text,,150149,Walwal,"Wal Wal, Chad",14.3667,14.1,1
1937,409,Amur River,Midpoint of river,132.169,47.6919,5,ArcGIS and Natural Earth Data,Point along a line,,198625,Amur river,"Amur River, Russ",52.9333,141.167,4
1938,410,Poland-Russia Border,Midpoint of shared (national) border,23.4462,52.5394,5,ArcGIS and cShapes,Point along a line,Uses 1946 data,205607,Soviet/Polish border,"Brest, Byelorussia",52.1,23.7,4
1941,414,Atlantic Ocean,Atlantic Ocean,-28.6731,-14.5994,6,latlong.net,Ocean,,108303,Atlantic Ocean,mid pt of ocean,16.4142,-37.5764,5
1940,418,Albania-Greece Border,Midpoint of shared (national) border,20.5887,40.0717,5,ArcGIS and cShapes,Point along a line,Uses 1946 data,187602,Greece-Albania border,"Leskovi Kolibi, Bulgaria",41.4,25.0667,4
1941,420,"Basra, Iraq","Basra, Iraq",47.7835,30.5081,2,latlong.net,Near,,173976,,"Basra, Iraq",30.49,47.82,2
1941,421,Atlantic Ocean,Atlantic Ocean,-28.6731,-14.5994,6,latlong.net,Ocean,,108303,Atlantic Ocean,mid pt of ocean,16.4142,-37.5764,5
1831,501,"Brussels, Belgium","Brussels, Belgium",4.35172,50.8503,8,latlong.net,Capital,,202689,Belgium,Brussels,50.8333,4.33333,5
1864,502,Germany-Hanover Border,Midpoint of shared (national) border,52.466,10.753,5,MIDLOC1.1,Point along a line,,145185,,md point of border between GER and HAN,52.466,10.753,4
1939,503,Latvia-Russia Border,Midpoint of shared (national) border,27.7032,56.9124,5,ArcGIS and cShapes,Point along a line,Uses 1991 data,211376,Soviet/Latvian border,"Ostrov, Rus",57.8325,34.995,4
1940,504,Lithuania-Russia Border,Midpoint of shared (national) border,23.8981,55.3357,6,ArcGIS and cShapes,State,Uses 1991 data,209208,Soviet/Lithuanian border,"Vilnius, Lithuania",54.6833,25.3167,4
1940,505,Estonia-Russia Border,Midpoint of shared (national) border,27.508,58.5314,5,ArcGIS and cShapes,Point along a line,Uses 1991 data,214256,Soviet/Estonian border,"Polna, Russia",58.4506,28.1564,4
1881,506,Vietnam,Centroid of ADM0,106.68,16.4667,6,ArcGIS and cShapes,State,Uses 1975 data,153214,"Tongking, Annam","Tongking, Vietnam",22,105,1
1882,507,"Hanoi, Vietnam","Hanoi, Vietnam",105.834,21.0278,2,latlong.net,Near,,160412,"Hanoi, Gulf of Tonkin","Hanoi, Vietnam",21.0333,105.85,2
1866,508,Adriatic Sea,Adriatic Sea,17.2903,41.8551,5,latlong.net,Sea,,189755,Adriatic Sea,Adriatic Sea,42,17.5,5
1866,509,"Strasbourg, France","Strasbourg, France",7.75211,48.5734,5,MIDLOC1.1 and latlong.net,Point along a line,,199816,Franco-Prussian border,"Strasbourg, France",48.5833,7.75,4
1920,510,"Vladivostok, Russia","Vladivostok, Russia",131.887,43.1198,1,latlong.net,Precise location text,,192144,Vladivostok,"Vladivostok, Russia",43.1333,131.9,1
1899,511,China (Zhejiang [ADM1]),Centroid of ADM1,120.089,29.1795,4,ArcGIS and GADM,ADM1,"Chekiang is a historic province, now appears to be contained in Zhejiang ADM1",171961,"Savman Bay, Chekiang Province","Chekiang Province, China",29,120,3
1941,518,Unspecified,,,,-99,,Location unclear or unspecified,,0,.,,,,7
1917,521,Unspecified,,,,-99,,Location unclear or unspecified,,0,.,,,,7
1918,522,Unspecified,,,,-99,,Location unclear or unspecified,,0,.,,,,7
1941,523,"Tehran, Iran","Tehran, Iran",51.389,35.6892,8,latlong.net,Capital,,181183,Iran,Tehran,35.6719,51.4244,5
1972,602,Ecuador Exclusive Economic Zone,Midpoint of westernmost mainland EEZ,-84.3917,-0.875073,5,ArcGIS and Marine Regions,Point along a line,,128352,Pacific Ocean off Equador,Manta,-0.95,-80.7333,4
1946,603,"Tehran, Iran","Tehran, Iran",51.389,35.6892,8,latlong.net,Capital,,181183,,tehran,35.91,50.77,5
1949,604,Yemen (Aden [ADM1]),Centroid of ADM1,44.8088,12.8313,4,ArcGIS and GADM,ADM1,,148050,Aden protectorate,Aden directorate,12.8,45.0333,3
1956,605,Burma (Shan State [ADM1]),Centroid of ADM1,98.1269,21.722,4,ArcGIS and GADM,ADM1,,161117,"Wa State, Burma","kengtang, MY",21.4997,99.6531,3
1956,606,"Budapest, Hungary","Budapest, Hungary",19.0402,47.4979,8,latlong.net,Capital,,197679,Hungary,Budapest,47.5,19.0833,5
1957,607,Jordan-Syria Border,Midpoint of shared (national) border,37.2119,32.5325,5,ArcGIS and cShapes,Point along a line,,176835,,SYR-JOR border,32.38,37.33,4
1958,608,"Berlin, Germany","Berlin, Germany",13.405,52.52,1,latlong.net,Precise location text,,205587,.,berlin,52.52,13.38,1
1962,610,Saudi Arabia-North Yemen Border,Midpoint of shared (national) border,44.5422,17.3755,5,ArcGIS and cShapes,Point along a line,,154530,Yemen/Saudi Arabia border,"Najran, Saudi Arabia",17.5056,44.1842,4
1964,611,North Vietnam,Midpoint of coastline,104.094,19.2248,5,ArcGIS and cShapes,Point along a line,Uses 1953 data,157529,,md point of VIE coast,12.84,109.37,4
1921,612,"Batum, Georgia","Batum, Georgia",41.6367,41.6168,1,latlong.net,Precise location text,,189804,"Batum, Georgia","Batum, Georgia",41.6489,41.6483,1
1940,613,"Khemmarat, Thailand","Khemmarat, Thailand",105.149,15.9672,5,latlong.net,Point along a line,,152491,Thai Indochina boader,"Khemmarat, Thailand",16.05,105.217,4
1944,614,"Ankara, Turkey","Ankara, Turkey",32.8597,39.9334,8,latlong.net,Capital,,186906,Turkey,Ankara,39.935,32.8642,5
1935,616,"Beijing, China","Beijing, China",116.407,39.9042,8,latlong.net,Capital,,187073,China,"Beijing,",39.9289,116.388,5
1942,617,"Cairo, Egypt","Cairo, Egypt",31.2357,30.0444,1,latlong.net,Precise location text,,173223,"Cairo,Egypt",Cairo,30.05,31.25,1
1975,619,High Seas-North Sea near Iceland,Rockall Rise,-14,59,5,MIDLOC1.1,Sea,,214893,High Seas-North Sea near Iceland,Rockall Rise,59,-14,5
1939,620,Unspecified,,,,-99,,Location unclear or unspecified,,0,.,,,,7
1943,621,Unspecified,,,,-99,,Location unclear or unspecified,,0,.,,,,7
1943,622,Unspecified,,,,-99,,Location unclear or unspecified,,0,.,,,,7
1964,623,India (Sikkim [ADM1]),Centroid of ADM1,88.4729,27.5715,4,ArcGIS and GADM,ADM1,,169737,Sikkim,"Sikkim, India",27.75,88.5,3
1963,624,"Cayenne, French Guiana","Cayenne, French Guiana",-52.3135,4.92242,8,latlong.net,Capital,,136336,French Guyana,Cayenne,4.93333,-52.3333,5
1922,625,Unspecified,,,,-99,,Location unclear or unspecified,,0,.,,,,7
1917,632,"Havana, Cuba","Havana, Cuba",-82.3666,23.1136,8,latlong.net,Capital,,162916,Cuba,Havana,23.1319,-82.3642,5
1949,633,Taiwan Strait,Taiwan Strait,119.698,24.6581,3,latlong.net,Strait,,165480,,taiwan straits,24.61,119.9,5
1949,634,"Beijing, China","Beijing, China",116.407,39.9042,1,latlong.net,Precise location text,,187073,Beijing,Beijing,39.9289,116.388,1
1963,1002,Dominican Republic Territorial Waters,Centroid of territorial waters,-70.0869,18.1209,3,ArcGIS and Marine Regions,Territorial waters,,155740,,md point of dom coast,18.67,-68.26,4
1950,1006,"Jerusalem, Israel","Jerusalem, Israel",35.2137,31.7683,1,latlong.net,Precise location text,,175391,Jerusalem,"Jerusalem, Israel",31.75,35,1
1957,1013,Gulf of Aqaba,Gulf of Aqaba,34.7299,28.6929,4,latlong.net,Gulf,,171070,Gulf of Aqaba,"Gulf of Aqaba, Saudia Arabia",29,34.6667,3
1965,1017,"Beirut, Lebanon","Beirut, Lebanon",35.5018,33.8938,8,latlong.net,Capital,,178272,Lebanon,Beirut,33.8719,35.5097,5
1962,1018,"Jerusalem, Israel","Jerusalem, Israel",35.2137,31.7683,1,latlong.net,Precise location text,,175391,Jerusalem,"Jerusalem, Israel",31.75,35,1
1963,1019,"Jerusalem, Israel","Jerusalem, Israel",35.2137,31.7683,1,latlong.net,Precise location text,,175391,Jerusalem,"Jerusalem, Israel",31.75,35,1
1960,1021,Indonesia (Papua [ADM1] and Irian Jaya Barat [ADM1]),Centroid of > ADM1,137.326,-4.03131,5,ArcGIS and GADM,> ADM1,,123755,West Irian,"Irian Jaya, Indonesia",-5,138,3
1951,1023,Indonesia (Papua [ADM1] and Irian Jaya Barat [ADM1]),Centroid of > ADM1,137.326,-4.03131,5,ArcGIS and GADM,> ADM1,,123755,West Irian,"Irian Jaya, Indonesia",5,138,3
1957,1024,Indonesia (Papua [ADM1] and Irian Jaya Barat [ADM1]),Centroid of > ADM1,137.326,-4.03131,5,ArcGIS and GADM,> ADM1,,123755,West Irian,"Irian Jaya, Indonesia",-5,138,3
1927,1025,Chaco Boreal,Chaco Boreal,-60,-23,5,geonames.org,> ADM1,,96001,Chaco Boreal,"Chaco Boreal, Paraguay",-23,-60,3
1928,1026,Chaco Boreal,Chaco Boreal,-60,-23,5,geonames.org,> ADM1,,96001,Chaco Boreal,"Chaco Boreal, Paraguay",-23,-60,3
1931,1027,Chaco Boreal,Chaco Boreal,-60,-23,5,geonames.org,> ADM1,,96001,Chaco Boreal,"Chaco Boreal, Paraguay",-23,-60,3
1936,1028,Chaco Boreal,Chaco Boreal,-60,-23,5,geonames.org,> ADM1,,96001,Chaco Boreal,"Chaco Boreal, Paraguay",-23,-60,3
1938,1029,Chaco Boreal,Chaco Boreal,-60,-23,5,geonames.org,> ADM1,,96001,Chaco Boreal,"Chaco Boreal, Paraguay",-23,-60,3
1966,1035,Israel-Syria Border,Midpoint of shared (national) border,35.6347,32.9833,5,ArcGIS and cShapes,Point along a line,,176832,,ISR-SYR border,32.945,35.84,4
1970,1039,Jordan-Syria Border,Midpoint of shared (national) border,37.2913,32.576,5,ArcGIS and cShapes,Point along a line,,176835,,SYR-JOR border,32.38,37.33,4
1948,1042,"Jerusalem, Israel","Jerusalem, Israel",35.2137,31.7683,2,latlong.net,Near,Dual event,175391,Area of Hebron and Jerusalem,"Jerusalem, Israel",31.75,35,2
1973,1043,"Sinai, Egypt","Sinai, Egypt",34,29.5,5,latlong.net,> ADM1,,172509,Sinai peninsula,"Sinai, Egypt",29.5,34,3
1971,1046,Israel-Syria Border,Midpoint of shared (national) border,35.8546,33.0388,5,ArcGIS and cShapes,Point along a line,,177552,,ISR-SYR border,32.945,35.84,4
1968,1051,Israel-Lebanon Border,Midpoint of shared (national) border,35.5057,33.1118,5,ArcGIS and cShapes,Point along a line,,177552,Israel/Lebanon border,"Me'ona, Israel",33.0167,35.2667,4
1943,1058,"Bangkok, Thailand","Bangkok, Thailand",100.502,13.7563,8,latlong.net,Capital,,149602,Thailand,Bangkok,13.75,100.517,5
1974,1061,Israel-Lebanon Border,Midpoint of shared (national) border,35.5057,33.1118,5,ArcGIS and cShapes,Point along a line,,177552,,ISR-LEB border,32.93,35.519,4
1953,1062,"Trieste, Italy","Trieste, Italy",13.7768,45.6495,1,latlong.net,Precise location text,,195508,Trieste,"Trieste, Italy",45.6486,13.78,1
1908,1063,Curacao,Curacao,-68.99,12.1696,1,latlong.net,Precise location text,,147103,"Curacao, Venezuelan coast",Curacao,10.3808,-71.2986,1
1941,1066,Indian Ocean,Indian Ocean,81.8262,-33.1376,6,latlong.net,Ocean,,81884,Indian Ocean,Indian Ocean,-10,70,5
1967,1067,"Jerusalem, Israel","Jerusalem, Israel",35.2137,31.7683,2,latlong.net,Near,,175391,"Border area, Jerusalem","Jerusalem, Israel",31.75,35,2
1970,1068,"Jerusalem, Israel","Jerusalem, Israel",35.2137,31.7683,8,latlong.net,Capital,,175391,Israel,"Jerusalem, Israel",31.75,35,5
1968,1069,"Algiers, Algeria","Algiers, Algeria",3.05876,36.7538,1,latlong.net,Precise location text,,182527,Algiers,"Algiers, Algeria",36.7631,3.05055,1
1963,1070,Indonesia-Malaysia Border,Midpoint of shared (national) border,114.183,1.45234,5,ArcGIS and cShapes,Point along a line,,131629,,mid pt borneo border,1.45,114.47,4
1968,1072,Sabah,"Sabah, Iraq",43.3683,35.3125,1,MIDLOC1.1,Precise location text,,180447,Sabah,"Sabah, Iraq",35.3125,43.3683,1
1954,1073,India (Goa [ADM1]),Centroid of ADM1,74.0574,15.3597,4,ArcGIS and GADM,ADM1,,151709,Goa,"Goa, India",15.5833,74,1
1961,1074,India (Goa [ADM1]),Centroid of ADM1,74.0574,15.3597,4,ArcGIS and GADM,ADM1,,151709,Goa,"Goa, India",15.5833,74,1
1947,1077,"Junagadh, India","Junagadh, India",70.4579,21.5222,1,latlong.net,Precise location text,,161061,Junagadh,"Junagadh, India",21.5167,70.4667,1
1951,1079,Kashmir (Line of Control),Midpoint of Line of Control,74.4843,34.7874,5,ArcGIS and GADM,Point along a line,,179789,Kashmir,Kashmir,34.5667,74.75,3
1971,1081,Jordan-Syria Border,Midpoint of shared (national) border,37.2913,32.576,5,ArcGIS and cShapes,Point along a line,,176835,Jordan-Syria border,"Imtan, Syria",32.4,36.8167,4
1962,1083,Algeria (Bechar [ADM1] and Tindouf [ADM1]),Centroid of > ADM1,-4.24893,28.8933,5,ArcGIS and GADM,> ADM1,Dual event; Contiguous ADM1s,170992,Zegdou and Tindouf,"Tindouf, Algeria",27.6742,-8.14778,1
1963,1084,Algeria-Morocco Border,Midpoint of shared (national) border,-3.81331,31.2712,5,ArcGIS and cShapes,Point along a line,,174593,Algerian-Moroccan border,"Figuig, Morocco",32.1167,-1.22694,4
1909,1086,Morocco (Northern [> ADM 1]),Centroid of > ADM1,-5.2002,32.9735,5,ArcGIS and GADM,> ADM1,,176750,Northern Moroco,Tangier Bay,35.7892,-5.79389,3
1911,1087,Morocco (Northern [> ADM 1]),Centroid of > ADM1,-5.2002,32.9735,5,ArcGIS and GADM,> ADM1,,176750,Northern Morocco,Tangier,35.7847,-5.81278,3
1958,1091,"Lake Nuba, Sudan","Lake Nuba, Sudan",32.1973,22.7395,2,latlong.net,Lake,,162425,"Lake Nuba, Wali Halfa","Nuba, Sudan",15.0667,30.45,3
1900,1093,Sena Ultima Esperanza,Sena Ultima Esperanza,-73.103,-51.475,2,latlong.net,Near,,55654,Sena Ultima Esperanza,"Esperanza, Arg",-26.0167,-54.65,1
1907,1094,"Isla de Martin Garcia, Argentina","Isla de Martin Garcia, Argentina",-58.2491,-34.1825,2,latlong.net,Island,,80164,Martin Garcia Island,"Isla de Martin Garcia, Argentina",-34.1875,-58.2811,3
1912,1095,Rio Paraguay,"Asuncion, Paraguay",-57.5759,-25.2637,5,MIDLOC1.1 and latlong.net,Point along a line,,93125,Rio Paraguay,"Asuncion, Paraguay",-25.2667,-57.6667,4
1952,1097,"Alto Palena, Chile","Palena, Chile",-71.8,-43.6167,1,latlong.net,Precise location text,,66457,Alto Palena,"Alto Palena, Chile",-43.6167,-71.8,1
1955,1098,"Alto Palena, Chile","Palena, Chile",-71.8,-43.6167,1,latlong.net,Precise location text,,66457,Alto Palena,"Alto Palena, Chile",-43.6167,-71.8,1
1958,1099,Beagle Channel,Beagle Channel,-67.8349,-54.8899,3,latlong.net,Channel,,50625,Beagle Channel,"Beagle Channel, Argentina",-54.8833,-68.1667,4
1959,1100,Beagle Channel,Beagle Channel,-67.8349,-54.8899,3,latlong.net,Channel,,50625,Beagle Channel,"Beagle Channel, Argentina",-54.8833,-68.1667,4
1960,1101,"Palena, Chile","Palena, Chile",-71.8,-43.6167,1,latlong.net,Precise location text,,66457,Alto Palena,"Alto Palena, Chile",-43.6167,-71.8,1
1963,1102,Beagle Channel,Beagle Channel,-67.8349,-54.8899,3,latlong.net,Channel,,50625,Beagle Channel 1,"Beagle Channel, Argentina",-54.8833,-68.1667,4
1972,1104,Oman-South Yemen Border,Midpoint of shared (national) border,52.5582,17.8217,5,ArcGIS and cShapes,Point along a line,Uses 2015 data,155266,Oman/South Yemen border,"Habarut, Yemen",17.3,52.7333,4
1973,1105,Oman-South Yemen Border,Midpoint of shared (national) border,52.5582,17.8217,5,ArcGIS and cShapes,Point along a line,Uses 2015 data,155266,Oman/South Yemen border,"Habarut, Yemen",17.3,52.7333,4
1975,1106,Oman-South Yemen Border,Midpoint of shared (national) border,52.5582,17.8217,5,ArcGIS and cShapes,Point along a line,Uses 2015 data,155266,South Yemen/Oman border area,"Habarut, Yemen",17.3,52.7333,4
1971,1107,North Yemen-South Yemen Border,Midpoint of shared (national) border,45.1159,13.8285,5,ArcGIS and cShapes,Point along a line,,149491,Yemen/South Yemen Border,"San'a', Yemen",15.5,44.25,4
1962,1108,Saudi Arabia-North Yemen Border,Midpoint of shared (national) border,44.5422,17.3755,5,ArcGIS and cShapes,Point along a line,,154530,,YEM-SAU border,17.23,47.46,4
1966,1109,Saudi Arabia-North Yemen Border,Midpoint of shared (national) border,44.5422,17.3755,5,ArcGIS and cShapes,Point along a line,,154530,,YEM-SAU border,17.23,47.46,4
1969,1110,"al Wadiah, Saudi Arabia","al Wadiah, Saudi Arabia",47.0972,17.0854,2,latlong.net,Near,,154535,near al Wadeish,saudi-yemen border,16.8125,47.4967,2
1949,1112,Dominican Republic-Haiti Border,Midpoint of shared (national) border,-71.7183,18.7414,5,ArcGIS and cShapes,Point along a line,,156457,Dominican-Haitian border,"Banica, DR",19.0833,-71.7,4
1959,1114,Unspecified,,,,-99,,Location unclear or unspecified,,0,.,,,,7
1967,1115,Venezuela,Midpoint of coastline,-63.8722,10.6422,5,ArcGIS and cShapes,Point along a line,,144953,Venezuelan Coast,Bonaire Basin,11.4167,-67.5,4
1957,1117,"Tan Tan, Morocco","Tan Tan, Morocco",-11.0987,28.438,8,latlong.net,Capital,,170258,Spanish Sahara,"Tan Tan, Morocco",28.4336,-11.1056,5
1972,1118,Morocco,Midpoint of coastline,-8.34876,33.3276,5,ArcGIS and cShapes,Point along a line,,177464,Off Moroccan coast,Rabat,34.05,-6.76667,4
1973,1119,Morocco,Midpoint of coastline,-8.34876,33.3276,5,ArcGIS and cShapes,Point along a line,,177464,Coast of Morocco,Tangiers,35.7847,-5.81278,4
1901,1120,"Rio Bachelor, Chile","Rio Bachelor, Chile",-72.3097,-53.5603,5,Geonames.org and latlong.net,Point along a line,,52056,Rio Massacre,"Rio de Massacre, Chile",-53.5667,-72.3167,4
1962,1123,Iraq-Turkey Border,Midpoint of shared (national) border,43.7267,37.2257,5,ArcGIS and cShapes,Point along a line,,183328,Iraq-Turkey border,"Cukurca, Turkey",41.0667,32.6833,4
1958,1124,Mexico-Guatemala Border,Midpoint of shared (national) border,-90.6733,16.6674,5,ArcGIS and cShapes,Point along a line,,153539,,GUA-MEX border,16.23,-90.27,4
1931,1127,Saudi Arabia-Yemen Border,Midpoint of shared (national) border,44.5422,17.3755,5,ArcGIS and cShapes,Point along a line,Uses 1946 data,154530,Saudi Yemen border,"Najran, Saudi Arabia",17.5056,44.1842,4
1931,1128,"Najran, Saudi Arabia","Najran, Saudi Arabia",44.2289,17.5656,1,latlong.net,Precise location text,,155249,Najran-S.Arabia Yemen border,"Najran, Saudi Arabia",17.5056,44.1842,1
1933,1129,Saudi Arabia-Yemen Border,Midpoint of shared (national) border,44.5422,17.3755,5,ArcGIS and cShapes,Point along a line,Uses 1946 data,154530,,YEM-SAU border,17.23,47.46,4
1914,1131,Iran (Northwest [> ADM1]),Centroid of > ADM1,46.879,35.8777,5,ArcGIS and GADM,> ADM1,,181174,Northwest Iran,Tabriz,38.08,46.2919,3
1918,1132,"Tehran, Iran","Tehran, Iran",51.389,35.6892,8,latlong.net,Capital,,181183,Iran,Tehran,35.6719,51.4244,5
1920,1133,Iranian Coastline (Caspian),Midpoint of coastline,51.6802,36.6202,5,ArcGIS and cShapes,Point along a line,Uses 1946 data,182624,,md pt USR-IRN border,37.36,54.45,5
1971,1135,Persian Gulf,Persian Gulf,51.6834,26.7505,4,latlong.net,Gulf,,168224,Persian Gulf,Persian Gulf,27,51,5
1969,1136,Shatt-al-Arab,Midpoint of river,48.0287,30.4622,5,ArcGIS and Natural Earth Data,Point along a line,,173257,Shatt-al-Arab,Shatt-al-Arab (Iran/Iraq),29.9497,48.5731,3
1959,1138,Shatt-al-Arab,Midpoint of river,48.0287,30.4622,5,ArcGIS and Natural Earth Data,Point along a line,,173257,Shatt-al-Arab,Shatt-al-Arab (Iran/Iraq),29.9497,48.5731,3
1932,1139,"Leticia, Colombia","Leticia, Colombia",-69.9359,-4.20317,1,latlong.net,Precise location text,,123341,Leticia,"Leticia, Colombia",10.3667,-74.4667,1
1934,1141,Peru (Mariscal Ramon Castilla [ADM2]),Centroid of ADM2,-71.7389,-3.88895,3,ArcGIS and GADM,ADM2,,124057,Ramon Castilla,"Ramon Castilla, Peru",-4.25695,-69.9594,1
1917,1142,"Harbin, China","Harbin, China",126.535,45.8038,1,latlong.net,Precise location text,,195734,"Harbin, China","Harbin, China",45.75,126.65,1
1901,1145,"Oriente, Peru","Oriente, Peru",-80.6808,-4.87778,1,Geonames.org and latlong.net,Precise location text,,122599,Oriente,"Oriente, Peru",-3.37305,-72.0392,1
1910,1147,"Oriente Forest, Ecuador","Oriente Forest, Ecuador",-77.0104,-0.734,5,latlong.net,> ADM1,,128366,Oriente,"Oriente, Ecuador",-2,-77,3
1912,1148,"Oriente, Ecuador","Oriente, Ecuador",-77,-2,5,MIDLOC1.1,> ADM1,,126207,Oriente,"Oriente, Ecuador",-2,-77,1
1932,1151,Rio Zarumilla,Rio Zarumilla,-80.2307,-3.49514,5,Point estimate and latlong.net,Point along a line,,124760,Zarumilla river,"Zaruma, Ecuador",-3.68333,-79.6167,4
1934,1152,Rio Zarumilla,Rio Zarumilla,-80.2307,-3.49514,5,Point estimate and latlong.net,Point along a line,,124760,Oriente and Zarumilla River,"Zaruma, Ecuador",-3.68333,-79.6167,4
1938,1153,"Oriente Forest, Ecuador","Oriente Forest, Ecuador",-77.0104,-0.734,5,latlong.net,> ADM1,,128366,"Oriente, Zarumilla River","Zaruma, Ecuador",10.5833,6.8,3
1939,1154,"Oriente Forest, Ecuador","Oriente Forest, Ecuador",-77.0104,-0.734,5,latlong.net,> ADM1,,128366,Zarumilla River and Oriente,"Zaruma, Ecuador",10.5833,6.8,3
1951,1155,Cordillera del Condor,Cordillera del Condor,-78.5,-4,5,latlong.net,> ADM1,,123324,Zamora-Santiago zone,cordillera del condor (EC-PER),-3.51,-78.3175,3
1954,1156,Rio Putumayo,Midpoint of river,-72.9506,-2.40738,5,ArcGIS and Natural Earth Data,Point along a line,,126215,Rio Putumayo,"r. Putumayo, Colombia",0.723333,-75.81,4
1955,1157,Cordillera del Condor,Cordillera del Condor,-78.5,-4,5,latlong.net,> ADM1,,123324,Zamora-Santiago zone,cordillera del condor (EC-PER),-3.51,-78.3175,3
1971,1158,Ecuador Exclusive Economic Zone,Midpoint of westernmost mainland EEZ,-84.3917,-0.875073,5,ArcGIS and Marine Regions,Point along a line,,128352,Pacific Ocean off Ecuador,"Salinas, Ecuador",-3.06667,-80.2667,4
1907,1160,Rio Putumayo,Midpoint of river,-72.9506,-2.40738,5,ArcGIS and Natural Earth Data,Point along a line,,126215,Putumayo River basin,"Tumaco, Col",1.79528,-78.7892,4
1911,1161,Cagueta/Yapura River,Midpoint of river,-70.698,-1.37853,5,ArcGIS and Natural Earth Data,Point along a line,,127659,"Cagueta, Yapura region","Yapura, Peru",-4.51667,-71.7333,3
1902,1163,Purus River,Midpoint of river,-65.9797,-7.68151,5,ArcGIS and Natural Earth Data,Point along a line,,118309,Yurua and Purus River regions,"Purus River, Brazil",-3.7,-61.4667,4
1966,1166,Anacoco Island,Anacoco Island,-61.1436,6.72528,2,Point estimate and latlong.net,Island,,139198,Ankoko Island,"Ankoko Island, Venezuela",6.71667,-61.1333,3
1922,1168,Honduras-Nicaragua Border,Midpoint of shared (national) border,-85.4934,14.082,5,ArcGIS and cShapes,Point along a line,Uses 1946 data,149950,Honduran-Nicaraguan border,"Jalapa, Nicaragua",13.9167,-86.1333,4
1927,1169,Guatemala-Honduras Border,Midpoint of shared (national) border,-88.9898,15.1322,5,ArcGIS and cShapes,Point along a line,Uses 1946 data,151383,Honduran-Guatemalan border,"San Pedro, Honduras",15.1,-86.1167,4
1929,1170,Honduras-Nicaragua Border,Midpoint of shared (national) border,-85.4934,14.082,5,ArcGIS and cShapes,Point along a line,Uses 1946 data,149950,,NIC-HON border,14.01,-85.372,4
1935,1171,El Salvador-Guatemala Border,Midpoint of shared (national) border,-89.709,14.1462,5,ArcGIS and cShapes,Point along a line,Uses 1946 data,149941,Guatemalan-Salvadoran border,"Ahuachapan, El Sal",13.9167,-89.85,4
1969,1172,"Timoteo Dominguez Key, Uruguay","Timoteo Dominguez Key, Uruguay",-58.2137,-33.5376,1,latlong.net,Precise location text,,80884,Timoteo Dominguez Key,"Timoteo Dominguez Key, Uruguay",-34.1761,-58.2231,1
1957,1173,Honduras-Nicaragua Border,Midpoint of shared (national) border,-85.4934,14.082,5,ArcGIS and cShapes,Point along a line,,149950,Nicaragua-Honduran border,"Jalapa, Nicaragua",13.9167,-86.1333,4
1900,1174,Colombia-Venezuela Border,Midpoint of shared (national) border,-69.9777,6.80034,5,ArcGIS and cShapes,Point along a line,Uses 1946 data,139181,Colombian Venezuelan border,"Culebra, Col",11.15,-74.1167,4
1917,1175,Motagua River,Midpoint of river,-89.4986,15.0868,5,ArcGIS and Natural Earth Data,Point along a line,,151382,Motagua River area,Rio Motagua,15.7333,-88.2333,4
1902,1178,Brazil (Acre [ADM1]),Centroid of ADM1,-70.4467,-9.30992,4,ArcGIS and GADM,ADM1,,116140,Acre,"Acre, Brazil",-9,-70,3
1906,1179,Pilcomayo River,Midpoint of river,-62.6244,-22.2771,5,ArcGIS and Natural Earth Data,Point along a line,,97435,Rio Pilcomayo,"Rio Pilcomayo, Bolivia",-19.3833,-65.8833,4
1910,1180,Bolivia (Manuripi [ADM2]),Centroid of ADM2,-68.0045,-11.5389,3,ArcGIS and GADM,ADM2,,112544,Manuripi region,"Manuripi, Bolivia",-11.3333,-67.5,3
1911,1181,Chile-Peru Border,Midpoint of shared (national) border,-69.7861,-18.0145,5,ArcGIS and cShapes,Point along a line,Dual event; Uses 1946 data,103181,Tacna Arica border,"Tacna, Peru",-17.8333,-70.5,1
1918,1182,Chaco Boreal,Chaco Boreal,-60,-23,5,geonames.org,> ADM1,,96001,Chaco Boreal,"Asuncion, Paraguay",-25.2667,-57.6667,3
1920,1184,Bolivia-Chile Border,Midpoint of shared (national) border,-68.7092,-20.3063,5,ArcGIS and cShapes,Point along a line,Uses 1946 data,100303,,md pt on CHL-BOL border,-20.66,-68.35,4
1975,1189,Brazil-Guyana Border,Midpoint of shared (national) border,-59.7375,2.13478,5,ArcGIS and cShapes,Point along a line,,132721,Brazil-Guyana border,"Raad, Guyana",2.61667,-59.9,4
1976,1190,El Salvador-Honduras Border,Midpoint of shared (national) border,-88.3707,13.8792,5,ArcGIS and cShapes,Point along a line,,149224,Honduran-Salvadoran border,"Sensuntepeque, El Salvador",13.8667,-88.6333,4
1976,1191,Chile-Peru Border,Midpoint of shared (national) border,-69.7861,-18.0145,5,ArcGIS and cShapes,Point along a line,,103181,Chile Peru border,"Tacna, Peru",-18.0056,-70.2483,4
1954,1193,Costa Rica-Nicaragua Border,Midpoint of shared (national) border,-84.6307,11.0617,5,ArcGIS and cShapes,Point along a line,,145631,,md pt of NIC-COS border,11.007,-84.56,4
1918,1195,Honduras-Nicaragua Border,Midpoint of shared (subnational) border,-85.4934,14.082,5,ArcGIS and cShapes,Point along a line,Uses 1946 data,149950,Nicaraguan-Honduran border,"Danli, Honduras",14.0333,-86.5833,4
1913,1196,"Isla de Providencia, Colombia","Isla de Providencia, Colombia",-81.3729,13.3388,2,latlong.net,Island,,148518,San Andry Providencia Islands,"Isla de Providencia, Col",13.35,-81.3667,3
1943,1197,China-Mongolia Border,Midpoint of shared (national) border,106.683,42.263,5,ArcGIS and cShapes,Point along a line,Uses 1946 data,190654,Mongolia/Sinking border,Ulaanbaatar,47.9167,106.917,5
1973,1200,"Islamabad, Pakistan","Islamabad, Pakistan",73.0931,33.7294,1,latlong.net,Precise location text,,178347,Islamabad,"Islamabad, Pakistan",33.7,73.1667,1
1907,1202,Honduras-Nicaragua Border,Midpoint of shared (national) border,-85.4934,14.082,5,ArcGIS and cShapes,Point along a line,Uses 1946 data,149950,,NIC-HON border,14.01,-85.372,4
1909,1203,Unspecified,,,,-99,,Location unclear or unspecified,,0,.,,,,7
1906,1205,El Salvador-Guatemala Border,Midpoint of shared (national) border,-89.709,14.1462,5,ArcGIS and cShapes,Point along a line,Uses 1946 data,149941,,gua-sal border,14.173,-89.519,4
1969,1206,El Salvador-Honduras Border,Midpoint of shared (national) border,-88.3707,13.8792,5,ArcGIS and cShapes,Point along a line,,149224,Salvadoran-Honduras border,"La Virtud, Honduras",14.05,-88.7,4
1912,1207,Dominican Republic-Haiti Border,Midpoint of shared (national) border,-71.7183,18.7414,5,ArcGIS and cShapes,Point along a line,Uses 1946 data,156457,Haitian-Dominican border,"Banica, DR",19.0833,-71.7,4
1959,1208,Apipe Grande Island,Apipe Grande Island,-56.8536,-27.5075,2,latlong.net,Island,,89527,Apipe Grande Island in Parani River,"Apipe Island, Argentina",-27.5,-56.9,3
1962,1209,Pilcomayo River,Midpoint of river,-62.6244,-22.2771,5,ArcGIS and Natural Earth Data,Point along a line,,97435,Pilcomayo river,"Pilcomayo, Bolivia",-19.3833,-65.8833,4
1964,1213,Cambodia-South Vietnam Border,Midpoint of shared (national) border,106.041,11.774,5,ArcGIS and cShapes,Point along a line,,146733,,VIE-CAM,11.96,106.7,4
1956,1214,Cambodia-South Vietnam Border (Territorial Waters),Midpoint of shared (territorial water) border,103.091,9.52125,5,ArcGIS and Marine Regions,Point along a line,,143847,"Islands near Camb, S Vietnam border","Kampot, Cambodia",12.1167,104.967,4
1958,1215,Cambodia (Svay Reing [ADM1]),Centroid of ADM1,105.861,11.1569,4,ArcGIS and GADM,ADM1,,146012,Parrots Beak,"Parrots Beak, cambodia",10.9258,106.101,3
1965,1216,Cambodia-South Vietnam Border,Midpoint of shared (national) border,106.041,11.774,5,ArcGIS and cShapes,Point along a line,,146733,,VIE-CAM,11.96,106.7,4
1967,1217,Cambodia-South Vietnam Border,Midpoint of shared (national) border,106.041,11.774,5,ArcGIS and cShapes,Point along a line,,146733,,VIE-CAM,11.96,106.7,4
1919,1219,Poland-Russia Border,Midpoint of shared (national) border,23.4462,52.5394,5,ArcGIS and cShapes,Point along a line,Uses 1946 data,205607,USSR-Polish border,"Brest, Byelorussia",52.1,23.7,4
1953,1225,Cambodia (Preah Vihear [ADM1]),Centroid of ADM1,105.008,13.798,4,ArcGIS and GADM,ADM1,,149611,Preah Vihear,"Preah Vihear, Cambodia",14.4,104.683,1
1958,1226,Cambodia (Preah Vihear [ADM1]),Centroid of ADM1,105.008,13.798,4,ArcGIS and GADM,ADM1,,149611,Preah Vihear,"Preah Vihear, Cambodia",14.4,104.683,1
1961,1227,Cambodia (Preah Vihear [ADM1]),Centroid of ADM1,105.008,13.798,4,ArcGIS and GADM,ADM1,,149611,Preah Vihear,"Preah Vihear, Cambodia",14.4,104.683,1
1962,1228,Cambodia (Preah Vihear [ADM1]),Centroid of ADM1,105.008,13.798,4,ArcGIS and GADM,ADM1,,149611,Preah Vihear,"Preah Vihear, Cambodia",14.4,104.683,1
1964,1229,Cambodia (Preah Vihear [ADM1]),Centroid of ADM1,105.008,13.798,4,ArcGIS and GADM,ADM1,,149611,Preah Vihear,"Preah Vihear, Cambodia",14.4,104.683,1
1967,1230,Cambodia (Preah Vihear [ADM1]),Centroid of ADM1,105.008,13.798,4,ArcGIS and GADM,ADM1,,149611,Preah Vihear,"Preah Vihear, Cambodia",14.4,104.683,1
1975,1231,Cambodia-Thailand Border (Territorial Waters),Midpoint of shared (territorial water) border,102.771,11.5044,5,ArcGIS and Marine Regions,Point along a line,,146726,"Border, Gulf of Thailand",Gulf of Thailand,10,102,3
1976,1232,Cambodia-Thailand Border,Midpoint of shared (national) border,102.81,13.9557,5,ArcGIS and cShapes,Point along a line,,149606,,CAM-THI,14.18,103.12,4
1921,1233,Austria (Burgenland [ADM1]),Centroid of ADM1,16.5202,47.5415,4,ArcGIS and GADM,ADM1,,198394,Burgenland,"Burgenland, Austria",47.5,16.4167,1
1921,1234,Unspecified,,,,-99,,Location unclear or unspecified,,0,.,,,,7
1921,1235,Albania (Northern [> ADM1]),Centroid of > ADM1,19.9127,42.1004,5,ArcGIS and GADM,> ADM1,,190480,Northern Albania,Shkoder,42.0675,19.5131,3
1947,1238,Kashmir (Line of Control),Midpoint of Line of Control,74.4843,34.7874,5,ArcGIS and GADM,Point along a line,,179789,Kashmir,Kashmir,34.5667,74.75,3
1923,1240,Bulgaria-Yugoslavia Border,Midpoint of shared (national) border,22.5318,42.8794,5,ArcGIS and cShapes,Point along a line,Uses 1946 data,191206,Yugoslavia/Bulgaria border,"Trn, Bulgaria",42.8353,22.6517,4
1925,1241,Bulgaria-Greece Border,Midpoint of shared (national) border,24.8234,41.4042,5,ArcGIS and cShapes,Point along a line,Uses 1946 data,189050,Greece/Bulgaria border,"Zlatograd, Bulgaria",41.3833,25.1,4
1938,1243,"Vilnius, Lithuania","Vilnius, Lithuania",25.2797,54.6872,8,latlong.net,Capital,,208491,Poland/Lithuania border,"Kaliningrad, Russia",54.71,20.5,4
1938,1244,Poland (Cieszyn [ADM2]),Centroid of ADM2,18.8111,49.7317,3,ArcGIS and GADM,ADM2,,201278,Teschen region,"Teschen, Poland",49.7667,18.6,1
1938,1245,Hungary-Yugoslavia Border,Midpoint of shared (national) border,18.0074,45.7869,5,ArcGIS and cShapes,Point along a line,Uses 1946 data,195517,Border,HUN-YUG border,45.71,18.4278,4
1938,1246,"Bratislava, Slovakia","Bratislava, Slovakia",17.1077,48.1486,8,latlong.net,Capital,,199115,Slovakia,Bratislava,48.15,17.1167,5
1939,1247,"Khust, Ukraine","Khust, Ukraine",23.2972,48.1735,8,latlong.net,Capital,Khust was capital of Carpatho-Ukraine,199127,Carpatho-Ukraine,"Lvov, Ukraine",49.8333,24,3
1909,1249,Karpathios and Crete Islands,Midpoint of shortest distance between islands,26.7164,35.3578,5,ArcGIS and GADM,Point along a line,,180414,Karapathois Island Crete,"Karpathos, Greece",35.5,27.2333,3
1912,1250,Bulgaria-Turkey Border,Midpoint of shared (national) border,27.1055,42.0943,5,ArcGIS and cShapes,Point along a line,Uses 1946 data,190495,,tur-bul border,41.47,26.9,4
1913,1251,Bulgaria-Yugoslavia Border,Midpoint of shared (national) border,22.5318,42.8794,5,ArcGIS and cShapes,Point along a line,Uses 1946 data,191206,,yug-bul border,43.47,22.66,4
1918,1257,"Bessarabia, Moldova","Bessarabia, Moldova",28.6959,48.0285,1,latlong.net,Precise location text,,199138,Bessarabia,"Bessarabia, Moldova",47,28.5,1
1918,1262,Albania,Centroid of ADM0,20.0684,41.1423,6,ArcGIS and cShapes,State,,189041,,albania,41.15,20.25,5
1918,1263,Romania-Yugoslavia Border,Midpoint of shared (national) border,21.3655,44.8442,5,ArcGIS and cShapes,Point along a line,Uses 1946 data,194083,border,rom-yug border,44.6675,21.9239,4
1919,1265,Hungary,Centroid of ADM0,19.4134,47.1665,6,ArcGIS and cShapes,State,Uses 1946 data,197679,,hungary,47.19,19.51,5
1919,1268,"Teschen, Poland","Teschen, Poland",18.6355,49.7498,1,latlong.net,Precise location text,,201278,Teschen,"Teschen, Poland",49.7667,18.6,1
1919,1269,Latvia,Centroid of ADM0,24.9294,56.8575,6,ArcGIS and cShapes,State,Uses 1991 data,211370,,latvia,56.99,25.08,5
1919,1270,Turkey (Western [> ADM1]),Centroid of > ADM1,29.2699,39.0793,5,ArcGIS and GADM,> ADM1,,186179,Western Turkey,Gallipoli,40.4,26.6667,3
1919,1272,"Vilnius, Lithuania","Vilnius, Lithuania",25.2797,54.6872,8,latlong.net,Capital,,208491,,lit-pol border,54.33,25.8,4
1921,1273,"Upper Silesia, Poland","Upper Silesia, Poland",19.322,50.5717,4,latlong.net,ADM1 like,,202719,Upper Silesia,"Upper Silesia, Poland",50.1667,18.8333,3
1908,1274,"Sofia, Bulgaria","Sofia, Bulgaria",23.3219,42.6977,8,latlong.net,Capital,,191207,Bulgaria,Sofia,42.6833,23.3167,5
1963,1279,"Nicosia, Cyprus","Nicosia, Cyprus",33.3823,35.1856,8,latlong.net,Capital,,180427,Cyprus,Nicosia,35.1667,33.3667,5
1967,1280,Cyprus,Centroid of ADM0,33.2218,35.0459,6,ArcGIS and cShapes,State,,180427,,cyprus,35.06,33.41,5
1948,1284,Albania-Greece Border,Midpoint of shared (national) border,20.5887,40.0717,5,ArcGIS and cShapes,Point along a line,,187602,Greece-Albania border,"Leskovik, Albania",40.1492,20.5975,4
1949,1285,Albania (Southern [> ADM1]),Centroid of > ADM1,20.1449,40.4629,5,ArcGIS and GADM,> ADM1,,187601,Southern Albania,Gjirokaster,40.0728,20.1369,3
1949,1286,Romania-Yugoslavia Border,Midpoint of shared (national) border,21.3655,44.8442,5,ArcGIS and cShapes,Point along a line,,194083,,yug-rom border,44.96,21.74,4
1976,1289,Aegean Sea,Aegean Sea,25.2686,39.0192,5,latlong.net,Sea,,186171,Aegean Sea,Aegean Sea,39,25,5
1975,1290,"Nicosia, Cyprus","Nicosia, Cyprus",33.3823,35.1856,8,latlong.net,Capital,,180427,Cyprus,Nicosia,35.1667,33.3667,5
1974,1292,Aegean Sea,Aegean Sea,25.2686,39.0192,5,latlong.net,Sea,,186171,Aegean Sea,Aegean Sea,39,25,5
1974,1293,Cyprus,Centroid of ADM0,33.2218,35.0459,6,ArcGIS and cShapes,State,,180427,,cyprus,35.06,33.41,5
1952,1295,Greece,Centroid of ADM0,22.9597,39.0685,6,ArcGIS and cShapes,State,,186166,"Greek Islands, Alpha and Gamma","Athens, Greece",37.9833,23.7333,3
1955,1300,Kashmir (Line of Control),Midpoint of Line of Control,74.4843,34.7874,5,ArcGIS and GADM,Point along a line,,179789,"Nekowal,Kashmir",Kashmir,34.8,72.15,3
1956,1301,Rann of Kutch,Rann of Kutch,70.1456,24.0454,2,latlong.net,Marsh,,164661,"Rann of Kutch, Chhad Bet Island","Rann of Kachchh, India",24.0458,69.5797,3
1958,1302,India (Assam [ADM1]),Centroid of ADM1,92.8295,26.3574,4,ArcGIS and GADM,ADM1,,167586,Assam,"Assam, India",26,93,3
1960,1303,Pakistan (Northwest Frontier Province [ADM1]),Centroid of ADM1,72.0483,34.4208,4,ArcGIS and GADM,ADM1,,179065,Northwest Frontier Province,Northwest Frontier Province,34.5,72,3
1961,1304,Pakistan (Northwest Frontier Province [ADM1]),Centroid of ADM1,72.0483,34.4208,4,ArcGIS and GADM,ADM1,,179065,Northwest Frontier Province,Northwest Frontier Province,34.5,72,3
1955,1305,Pakistan (Northwest Frontier Province [ADM1]),Centroid of ADM1,72.0483,34.4208,4,ArcGIS and GADM,ADM1,,179065,Northwest Frontier Province,Northwest Frontier Province,34.5,72,3
1950,1306,Pakistan (Northwest Frontier Province [ADM1]),Centroid of ADM1,72.0483,34.4208,4,ArcGIS and GADM,ADM1,,179065,Northwest Frontier Province,"Northwest Frontier Province, Pakistan",34.5,72,3
1949,1307,Pakistan (Northwest Frontier Province [ADM1]),Centroid of ADM1,72.0483,34.4208,4,ArcGIS and GADM,ADM1,,179065,Northwest Frontier Province,"Northwest Frontier Province, Pakistan",34.5,72,3
1950,1308,Kashmir (Line of Control),Midpoint of Line of Control,74.4843,34.7874,5,ArcGIS and GADM,Point along a line,,179789,Kashmir,Kashmir,34.5667,74.75,3
1962,1310,India (Assam [ADM1] and Tripura [ADM1]),Centroid of > ADM1,92.7042,26.0562,5,ArcGIS and GADM,> ADM1,,167586,"Tripura, assam","Tripura, India",24,92,3
1964,1312,India (Jammu and Kashmir [ADM1]),Centroid of ADM1,76.6126,33.7594,4,ArcGIS and GADM,ADM1,,178354,Jammu and Kashmir,"Jammu, Pakistan",30.1167,73.85,3
1963,1317,India (Tripura [ADM1]),Centroid of ADM1,91.7436,23.7468,4,ArcGIS and GADM,ADM1,,163984,"Dumabari, Lachar-Sylhet(Tripura)","Tripura, India",24,92,3
1965,1319,DRC-Uganda Border,Midpoint of shared (national) border,30.5205,1.28653,5,ArcGIS and cShapes,Point along a line,,131462,Zairean Uganda border,"Gety, DRC",1.21667,30.2,4
1960,1321,Congo-DRC Border,Midpoint of shared (national) border,16.2501,-2.10784,5,ArcGIS and cShapes,Point along a line,,126393,Congo-Zaire border,"Kinshasa, DRC",-4.32972,15.315,4
1966,1322,Chad (Oaddai [ADM1])-Sudan Border,Midpoint of shared (subnational) border,22.2591,13.3246,5,ArcGIS and GADM,Point along a line,,148725,"Quaddai District, Chad-Sudan border","Tundubai, Sudan",14.8,22.7667,3
1969,1323,Central African Republic-Chad Border,Midpoint of shared (national) border,18.9736,8.95296,5,ArcGIS and cShapes,Point along a line,,142238,CAR-Chadian border,"Gondey, Chad",9.15,19.3167,4
1966,1324,Unspecified,,,,-99,,Location unclear or unspecified,,0,.,,,,7
1969,1325,Congo-DRC Border,Midpoint of shared (national) border,16.2501,-2.10784,5,ArcGIS and cShapes,Point along a line,,126393,Zaire/Congo border,"Kinshasa, DRC",-4.32972,15.315,4
1969,1326,"Cabinda, Angola","Cabinda, Angola",12.1927,-5.57752,1,latlong.net,Precise location text,,121345,Cabinda (Angola),Cabinda,-5,12.5,1
1965,1328,Congo-DRC Border,Midpoint of shared (national) border,16.2501,-2.10784,5,ArcGIS and cShapes,Point along a line,,126393,congo-zaire border,mid pt on border,-2.05806,16.3395,4
1975,1331,Algeria-Morocco Border (Territorial Waters),Midpoint of shared (territorial water) border,-2.2027,35.1914,5,ArcGIS and Marine Regions,Point along a line,,180356,,mor-alg border by med sea,35.04,-1.99,4
1976,1333,Botswana-Zimbabwe Border,Midpoint of shared (national) border,27.2985,-20.3205,5,ArcGIS and cShapes,Point along a line,,100495,botswana-zimbabwe border,"Maitengwe, Botswana",-20,27.1667,4
1975,1334,"Gaborone, Botswana","Gaborone, Botswana",25.9231,-24.6282,8,latlong.net,Capital,,94012,Botswana,Gaborone,-24.6464,25.9119,5
1969,1335,Botswana-Zimbabwe Border,Midpoint of shared (national) border,27.2985,-20.3205,5,ArcGIS and cShapes,Point along a line,,100495,Botswana-Rhodesia border,"Maitengwe, Botswana",-20,27.1667,4
1976,1337,"Aouzou, Chad","Aouzou, Chad",17.4307,21.8163,3,latlong.net,ADM2 like,,160955,Aouzou Strip,"Aozou, Chad",21.8167,17.4167,3
1976,1339,Cameroon-Gabon Border,Midpoint of shared (national) border,12.3074,2.3081,5,ArcGIS and cShapes,Point along a line,,132865,gab-cam Border,md pt on border,2.16889,11.9725,4
1972,1340,"Mbanie Island, Gabon","Mbanie Island, Gabon",9.3791,0.81068,2,latlong.net,Island,,130699,Mbanie and Locotiers islands,"owendo, gabon",0.321389,9.53722,3
1973,1342,Malawi-Mozambique Border,Midpoint of shared (national) border,35.2699,-16.3259,5,ArcGIS and cShapes,Point along a line,Uses 1975 data,106271,Mozambican-Malawian border,"Milange, Mozambique",-16.0986,35.77,4
1967,1343,Kashmir (Line of Control),Midpoint of Line of Control,74.4843,34.7874,5,ArcGIS and GADM,Point along a line,,179789,Kashmir,"Kashmir, pakistan",31.3422,74.3653,3
1953,1344,Japan-South Korea Border (Territorial Waters),Midpoint of shared (territorial water) border,129.143,34.7672,5,ArcGIS and Marine Regions,Point along a line,,179899,Waters between Japan and S Korea,"Tsushima, Japan",34,129.5,4
1954,1345,Takeshima Islands,Takeshima Islands,131.868,37.2427,2,latlong.net,Island,,183504,Takeshima Islands,"Takeshima, Japan",35.3,136.183,3
1955,1346,Japan-South Korea Border (Territorial Waters),Midpoint of shared (territorial water) border,129.143,34.7672,5,ArcGIS and Marine Regions,Point along a line,,179899,waters between s.Korea Japan,"Tsushima, Japan",34,129.5,4
1958,1347,Japan-South Korea Border (Territorial Waters),Midpoint of shared (territorial water) border,129.143,34.7672,5,ArcGIS and Marine Regions,Point along a line,,179899,Waters between Japan and S Korea,"Tsushima, Japan",34,129.5,4
1958,1350,"Viangchan, Laos","Viangchan, Laos",102.633,17.9757,8,latlong.net,Capital,,155366,Laos,"Viangchan, Laos",17.9667,102.6,5
1966,1351,Guinea-Ivory Coast Border,Midpoint of shared (national) border,-7.67512,8.5036,5,ArcGIS and cShapes,Point along a line,,142185,,mid pt on IVO-GUI border,8.684,-7.532,4
1967,1352,Guinea-Ivory Coast Border,Midpoint of shared (national) border,-7.67512,8.5036,5,ArcGIS and cShapes,Point along a line,,142185,Ivorian-Guinean coastal waters,"Sassandra, Ivory Coast",7.7,-7.06667,4
1962,1353,Laos-North Vietnam Border,Midpoint of shared (national) border,104.845,19.8309,5,ArcGIS and cShapes,Point along a line,,158250,,mid pt on LAO-VIE border,18.49,105.26,4
1969,1360,Cambodia (Eastern [> ADM1]),Centroid of > ADM1,106.617,13.2301,5,ArcGIS and GADM,> ADM1,,148894,Eastern Cambodia,"Chbar, Cambodia",12.7667,107.167,3
1964,1361,Burundi-Rwanda Border,Midpoint of shared (national) border,29.872,-2.74158,5,ArcGIS and cShapes,Point along a line,,125700,burundi-rwanda border,mid pt on border,-2.57556,29.9692,4
1973,1362,Burundi-Rwanda-Tanzania Border,"Intersection of Burundi, Rwanda, and Tanzania borders",30.5733,-2.39916,5,ArcGIS and cShapes,Point along a line,,126422,meeting pt of RWA-BUI-TAZ border,-2.468,30.667,2,5
1960,1363,"China, Laos, Vietnam Border",Intersection of multiple borders,102.141,22.3963,5,ArcGIS and cShapes,Point along a line,,161845,,LAO northern border,21.289,101.846,4
1972,1364,Mozambique-Tanzania Border,Midpoint of shared (national) border,37.7783,-11.5669,5,ArcGIS and cShapes,Point along a line,Uses 1975 data,112756,Tanzanian-Mozambican border,"Chamba, Tanzania",-11.5833,36.9667,4
1965,1366,Kenya-Uganda Border,Midpoint of shared (national) border,34.9566,1.58421,5,ArcGIS and cShapes,Point along a line,,132190,Kenyan-Ugandan border,"Moroto, Uganda",2.53333,34.65,4
1973,1367,Kenya-Uganda Border,Midpoint of shared (national) border,34.9566,1.58421,5,ArcGIS and cShapes,Point along a line,,132190,Ugandan-Kenyan border,"Kongelai, Kenya",1.46667,35.0167,4
1976,1368,Kenya-Uganda Border,Midpoint of shared (national) border,34.9566,1.58421,5,ArcGIS and cShapes,Point along a line,,132190,Ugandan-Kenyan border,"Moroto, Uganda",2.53333,34.65,4
1959,1369,Burma-Pakistan Border,Midpoint of shared (national) border,92.5799,21.2779,5,ArcGIS and cShapes,Point along a line,,160386,Burma near border,Rangoon,16.7833,96.1667,4
1950,1374,Burma (Shan State [ADM1]),Centroid of ADM1,98.1269,21.722,4,ArcGIS and GADM,ADM1,,161117,Shan State of Kengtung,Kentung,21.2833,99.6,3
1975,1376,Laos-Thailand Border,Midpoint of shared (national) border,102.671,17.8317,5,ArcGIS and cShapes,Point along a line,,155366,Thai/Laos boader,Viangchan,17.9667,102.6,4
1976,1377,"Entebbe Airport, Uganda","Entebbe Airport, Uganda",32.4418,0.043591,1,latlong.net,Precise location text,,130025,"Entebbe airport, Uganda","Entebbe Airport, Uganda",0.0575,32.4672,1
1967,1378,Ethiopia-Kenya-Somalia Border,"Intersection of Ethiopia, Kenya, and Somalia borders",41.9052,3.98032,5,ArcGIS and cShapes,Point along a line,,135084,meeting pt of KEN-ETH-SOM,3.841,41.971,2,5
1964,1379,North Korea-South Korea Border,Midpoint of shared (national) border,127.507,38.3093,5,ArcGIS and cShapes,Point along a line,,184936,,PRK-KOR border,38.27,127.3,4
1971,1380,Tanzania (Kagera [ADM1]),Centroid of ADM1,31.4539,-1.88039,4,ArcGIS and GADM,ADM1,,127143,Kagera Salient,"Kagera River, Tanzania",-0.95,31.7833,4
1972,1381,Tanzania-Uganda Border,Midpoint of shared (national) border,32.1947,-1.00008,5,ArcGIS and cShapes,Point along a line,,127865,,md pt TAZ-UGA border,-1.121,32.144,4
1974,1382,Tanzania-Uganda Border,Midpoint of shared (national) border,32.1947,-1.00008,5,ArcGIS and cShapes,Point along a line,,127865,,md pt TAZ-UGA border,-1.121,32.144,4
1974,1384,Gambia-Senegal Border,Midpoint of shared (national) border,-13.8697,13.3224,5,ArcGIS and cShapes,Point along a line,,148653,Senegalese-Gambian border,"Banjul, Gambia",13.4531,-16.5775,4
1969,1385,Guinea Bissau-Senegal Border,Midpoint of shared (national) border,-15.2665,12.6561,5,ArcGIS and cShapes,Point along a line,Uses 1974 data,147930,,md pt of guinea-bissau-sen border,12.654,-14.933,4
1973,1386,Guinea-Guinea Bissau Border,Midpoint of shared (national) border,-13.8519,11.671,5,ArcGIS and cShapes,Point along a line,Uses 1974 data,146493,Guinea-Port Guinea border,"Cacine, Guinea-Bissau",11.1167,-15.0167,4
1961,1387,Guinea-Senegal Border,Midpoint of shared (national) border,-12.615,12.4098,5,ArcGIS and cShapes,Point along a line,,147215,Guinean-Senegalese border,"Wassadou, Senegal",13.2333,-13.8167,4
1972,1389,Guinea Bissau-Senegal Border,Midpoint of shared (national) border,-15.2665,12.6561,5,ArcGIS and cShapes,Point along a line,Uses 1974 data,147930,Senegal-Port.Guinea border,"Koukany, Senegal",12.9333,-14.0833,4
1972,1390,Mozambique-Zambia Border,Midpoint of shared (national) border,31.3928,-14.6432,5,ArcGIS and cShapes,Point along a line,Uses 1975 data,108423,Zambian-Mozambican border,"Nyanje, Zambia",-14.4,31.8,4
1971,1391,Mozambique-Zambia Border,Midpoint of shared (national) border,31.3928,-14.6432,5,ArcGIS and cShapes,Point along a line,Uses 1975 data,108423,Zambian-Mozambican border,"Nyanje, Zambia",-14.4,31.8,4
1966,1392,Angola-Zambia Border,Midpoint of shared (national) border,21.9969,-13.4962,5,ArcGIS and cShapes,Point along a line,Uses 1975 data,110564,Zambia/Angola border,"Mussuma, Angola",-14.2,21.9167,4
1974,1396,Zambia-Zimbabwe Border,Midpoint of shared (national) border,27.813,-16.9759,5,ArcGIS and cShapes,Point along a line,,105536,,zim-zam border,-17.006,27.794,4
1973,1397,Zambia-Zimbabwe Border,Midpoint of shared (national) border,27.813,-16.9759,5,ArcGIS and cShapes,Point along a line,,105536,,zim-zam border,-17.006,27.794,4
1969,1399,Caprivi Strip,Caprivi Strip,22.5689,-17.9802,5,latlong.net,> ADM1,,104086,Caprivi Strip,"Caprivi Strip, Namibia",-18,23,3
1968,1400,"Lusaka, Zambia","Lusaka, Zambia",28.3228,-15.3875,8,latlong.net,Capital,,107697,Zambia,Lusaka,-15.4167,28.2833,5
1966,1401,Caprivi Strip,Caprivi Strip,22.5689,-17.9802,5,latlong.net,> ADM1,,104086,Caprivi Strip,"Caprivi Strip, Namibia",-18,23,3
1968,1403,Sudan-Uganda Border,Midpoint of shared (national) border,32.314,3.68445,5,ArcGIS and cShapes,Point along a line,,135065,Sudan/Uganda border,"Nimule, Sudan",3.6,32.05,4
1971,1404,Sudan-Uganda Border,Midpoint of shared (national) border,32.314,3.68445,5,ArcGIS and cShapes,Point along a line,,135065,Sudan/Uganda border,"Nimule, Uganda",3.6,32.05,4
1969,1406,Equatorial Guinea,Centroid of ADM0,10.342,1.71234,6,ArcGIS and cShapes,State,Dual event; ADM1s not contiguous,132141,Santa Isabel and Bata,"bata, eq guinea",2.02528,9.825,1
1963,1407,Benin-Nigeria Border,Midpoint of shared (national) border,3.13833,9.21593,5,ArcGIS and cShapes,Point along a line,,142927,Beninois-Nigerian border,mid pt on border,9.0475,2.88944,4
1966,1408,"Accra, Ghana","Accra, Ghana",-0.186964,5.60372,8,latlong.net,Capital,,137880,Ghana and Guinea,"Accra, Ghana",5.55,-0.216667,5
1962,1410,Mali-Mauritania Border,Midpoint of shared (national) border,-5.64396,16.8928,5,ArcGIS and cShapes,Point along a line,,153709,Mauritanian-Malian border,"Nioro, Mali",15.2333,-9.58333,4
1974,1411,Burkina Faso-Mali Border,Midpoint of shared (national) border,-3.43388,13.269,5,ArcGIS and cShapes,Point along a line,,148674,Malian-Burkinabe border,"Kiri, Mali",13.5333,-4.1,3
1962,1418,Ghana-Togo Border,Midpoint of shared (national) border,0.393728,8.72793,5,ArcGIS and cShapes,Point along a line,,142201,togo-ghana Border,"Jasikan, Ghana",7.4,0.466667,4
1965,1419,Ghana-Togo Border,Midpoint of shared (national) border,0.393728,8.72793,5,ArcGIS and cShapes,Point along a line,,142201,Togolese Ghanian border,"Jasikan, Ghana",7.4,0.466667,4
1967,1422,Ethiopia-Sudan Border,Midpoint of shared (national) border,34.8118,10.7249,5,ArcGIS and cShapes,Point along a line,,145150,Ethiopean-Sudanese frontier,"Famaka, Sudan",11.3,34.7333,4
1960,1423,"Ogaden, Ethiopia","Ogaden, Ethiopia",42.7994,9.35067,2,latlong.net,Near,,143006,"Aiscia, Ogaden","Ogaden, Ethiopia",8,44,5
1963,1425,"Ogaden, Ethiopia","Ogaden, Ethiopia",42.7994,9.35067,1,latlong.net,Precise location text,,143006,Ogaden,"Ogaden, Ethiopia",8,44,2
1963,1426,Pakistan (Northwest Frontier Province [ADM1]),Centroid of ADM1,72.0483,34.4208,4,ArcGIS and GADM,ADM1,,179065,Northwest Frontier Province,"NWFP, Pakistan",34.5,72,3
1974,1427,"Ogaden, Ethiopia","Ogaden, Ethiopia",42.7994,9.35067,1,latlong.net,Precise location text,,143006,Ogaden,"Ogaden, Ethiopia",8,44,2
1975,1428,"Ogaden, Ethiopia","Ogaden, Ethiopia",42.7994,9.35067,1,latlong.net,Precise location text,,143006,Ogaden,"Ogaden, Ethiopia",8,44,2
1975,1430,Mozambique-Zimbabwe Border,Midpoint of shared (national) border,32.898,-18.5246,5,ArcGIS and cShapes,Point along a line,,102666,,moz-zim border,-19.18,32.93,4
1975,1435,"Phnom Penh, Cambodia","Phnom Penh, Cambodia",104.892,11.5449,8,latlong.net,Capital,,146730,Cambodia,Phnom Penh,11.55,104.85,5
1975,1441,Unspecified,,,,-99,,Location unclear or unspecified,,0,.,,,,7
1971,1447,,,,,-99,,Location unclear or unspecified,,0,"Bangladesh, Kashmir",Dhaka,23.723,9.40861,5
1954,1448,Taiwan Strait,Taiwan Strait,119.698,24.6581,3,latlong.net,Strait,,165480,,taiwan straits,24.61,119.9,5
1969,1449,India-Nepal Border,Midpoint of shared (national) border,83.9121,27.4494,5,ArcGIS and cShapes,Point along a line,,169008,nepal-india border,mid pt of border,27.3706,84.4697,4
1975,1450,Indonesia (East Timor [ADM1]),Centroid of ADM1,125.852,-8.82025,4,ArcGIS and GADM,ADM1,,117252,East TImor,"Baukau, Timor",-8.47111,126.458,3
1956,1452,Unspecified,,,,-99,,Location unclear or unspecified,,0,.,,,,7
1968,1462,"Susta, Latvia","Susta, Latvia",21.3318,56.4724,1,latlong.net,Precise location text,,210643,Susta region,"Susta, Latvia",56.4667,21.3333,3
1965,1463,India-Nepal Border,Midpoint of shared (national) border,83.9121,27.4494,5,ArcGIS and cShapes,Point along a line,,169008,nepal-india border,mid pt of border,27.3706,84.4697,4
1962,1466,India-Nepal Border,Midpoint of shared (national) border,83.9121,27.4494,5,ArcGIS and cShapes,Point along a line,,169008,,IND-NEP border,27.51,84.29,4
1976,1469,Bangladesh-India Border,Midpoint of shared (national) border,89.8472,25.9152,5,ArcGIS and cShapes,Point along a line,,166860,bang-india border,mid pt of border,25.1172,90.5825,4
1975,1472,North Korea-South Korea Border,Midpoint of shared (national) border,127.507,38.3093,5,ArcGIS and cShapes,Point along a line,,184936,,PRK-KOR border,38.27,127.3,4
1918,1477,Finland (Aland Islands [ADM1]),Centroid of ADM1,20.1648,60.2019,4,ArcGIS and GADM,ADM1,,216401,Aland Islands,"Aland, Finland",60.25,20,3
1967,1480,Israel-Egypt Border,Midpoint of shared (national) border,32.3016,30.9629,5,ArcGIS and cShapes,Point along a line,,173945,,ISR-EGY border,30.363,34.706,4
1974,1481,Iceland Territorial Waters,Point along territorial waters nearest North Sea,-12.8121,64.5558,5,"ArcGIS, latlong.net, and Marine Regions",Point along a line,,222815,North Sea off Iceland,"Hvalnes, Iceland",64.4,-14.55,4
1865,1482,Chile,Centroid of ADM0,-71.374,-37.8525,6,ArcGIS and cShapes,State,Uses 1946 data,75098,,chile,-38.15,-72.04,5
1884,1486,"Seoul, South Korea","Seoul, South Korea",126.978,37.5665,1,latlong.net,Precise location text,,184214,"Seoul, Korea",Seoul,37.5664,127,1
1885,1488,Korea,Centroid of ADM0,127.463,38.5208,6,ArcGIS and cShapes,State,Uses 1949 data,185655,,korea,38.68,127.45,5
1874,1489,Taiwan,Centroid of ADM0,120.962,23.7511,6,ArcGIS and cShapes,State,Uses 1949 data,164042,Formosa,"Formosa, Brazil",-23.7833,-45.35,1
1894,1490,Peru,Centroid of ADM0,-74.3756,-9.16376,6,ArcGIS and cShapes,State,Uses 1946 data,116132,,peru,-16.7,-70.25,5
1849,1493,Venezuela,Midpoint of coastline,-63.8722,10.6422,5,ArcGIS and cShapes,Point along a line,Uses 1946 data,144953,Venezuelan Coast,Caracas,9.08333,-69.8333,4
1854,1494,"Aves Island, Venezuela","Aves Island, Venezuela",-63.618,15.6684,2,latlong.net,Island,,152153,"Aves Island, Venezuela",Aves Island,15.7,-63.6333,3
1856,1495,"Aves Island, Venezuela","Aves Island, Venezuela",-63.618,15.6684,2,latlong.net,Island,,152153,"Aves Island, Venezuela",Aves Island,15.7,-63.6333,3
1869,1497,Venezuela,Midpoint of coastline,-63.8722,10.6422,5,ArcGIS and cShapes,Point along a line,Uses 1946 data,144953,Venezuelan Coast,Caracas,10.5,-66.9167,4
1846,1498,Unspecified,,,,-99,,Location unclear or unspecified,,0,.,,,,7
1857,1500,Bolivia-Chile Border,Midpoint of shared (national) border,-68.7092,-20.3063,5,ArcGIS and cShapes,Point along a line,Uses 1946 data,100303,,chile-bol border,-26.78,-69.44,4
1861,1501,"Cobija, Bolivia","Cobija, Bolivia",-68.7811,-11.0344,1,latlong.net,Precise location text,,113263,Coblja,"Cobija, Bolivia",-11.0333,-68.7333,1
1863,1502,"Mejillones, Chile","Mejillones, Chile",-70.4455,-23.0985,1,latlong.net,Precise location text,,95980,"Mejillones, Chile",Mejillones,-23.1,-70.45,1
1872,1503,"Antofagasta, Chile","Antofagasta, Chile",-70.3975,-23.6509,1,latlong.net,Precise location text,,95260,"Antofagasta, Chile",Antofagasta,-23.65,-70.4,1
1852,1506,Unspecified,,,,-99,,Location unclear or unspecified,,0,.,,,,7
1843,1507,Magellan Straits,Magellan Straits,-70.8288,-53.7302,3,latlong.net,Strait,,52059,Magellan Straits,"Magellan, Chile",-54,-71,4
1873,1508,Argentina (Santa Cruz [ADM1]),Centroid of ADM1,-69.9414,-48.8127,4,ArcGIS and GADM,ADM1,,59261,Santa Cruz,"Santa Cruz, Argentina",-49,-70,1
1878,1510,Santa Cruz River,Midpoint of river,-70.4387,-50.2216,5,ArcGIS and EarthWorks,Point along a line,,57100,Santa Cruz River,"Santa Cruz, Argentina",-49,-70,3
1879,1511,"Rio Gallegos, Argentina","Rio Gallegos, Argentina",-69.2168,-51.6231,2,latlong.net,Near,,54942,"North of Rio Gallegos, Argentina",Rio Gallegos,-51.6,-68.9833,2
1891,1512,"Valaparaiso, Chile","Valaparaiso, Chile",-71.6127,-33.0472,1,latlong.net,Precise location text,,81577,Valaparaiso Chile,Valparaiso,-33.0478,-71.6011,1
1897,1513,"Puna de Atacama, Argentina","Puna de Atacama, Argentina",-67,-25,5,latlong.net,> ADM1,,93107,"Puna de Atacama, Argentina",Puna de Atacama,-25,-67,1
1884,1515,Chile-Peru Border,Midpoint of shared (national) border,-69.7861,-18.0145,5,ArcGIS and cShapes,Point along a line,Uses 1946 data,103181,Chile Peru border,mid pt of border,-18.2872,-69.8347,4
1884,1516,Bolivia-Peru Border,Midpoint of shared (national) border,-69.1355,-14.5016,5,ArcGIS and cShapes,Point along a line,Uses 1946 data,108222,Peru Bolivian border,"La Paz, Bolivia",-16.5,-68.15,4
1883,1517,Unspecified,,,,-99,,Location unclear or unspecified,,0,.,,,,7
1878,1518,Bolivia-Chile Border,Midpoint of shared (national) border,-68.7092,-20.3063,5,ArcGIS and cShapes,Point along a line,Uses 1946 data,100303,,chile-bol border,-26.78,-69.44,4
1863,1519,Colombia-Ecuador Border,Midpoint of shared (national) border,-77.1538,0.343266,5,ArcGIS and cShapes,Point along a line,Uses 1946 data,129806,colombia-ecuador Border Area,mid pt of border,0.368889,-77.2206,4
1862,1520,"Ibarra, Ecuador","Ibarra, Ecuador",-78.1222,0.339176,1,latlong.net,Precise location text,,129804,"Ibarra, Ecuador",Ibarra,-0.3,-78.55,1
1857,1521,Aguarico River,Aguarico River,-76.3582,-0.393123,5,latlong.net,Point along a line,,129088,"Near Aguarico, Colombia","border w Aguarico, ECU",0.25,-76.2697,2
1856,1522,"Panama City, Panama","Panama City, Panama",-79.5199,8.98238,8,latlong.net,Capital,,142041,Panama,Panama City,8.96667,-79.5333,5
1852,1523,Colombia-Peru Border,Midpoint of shared (national) border,-72.2277,-2.49887,5,ArcGIS and cShapes,Point along a line,Uses 1946 data,126216,,col-per border,-3.94,-69.885,4
1834,1524,Colombia Territorial Waters (Caribbean Mainland),Centroid of territorial waters,-74.1421,11.4789,3,ArcGIS and Marine Regions,Territorial waters,,145652,Off Columbia,"Barranquilla, Colombia",5.15,-73.8833,4
1874,1526,Chaco Boreal,Chaco Boreal,-60,-23,5,geonames.org,> ADM1,,96001,"Paraguay, Chaco Boreal","Chaco Boreal, Paraguay",-23,-60,3
1872,1527,"Asuncion, Paraguay","Asuncion, Paraguay",-57.5759,-25.2637,8,latlong.net,Capital,,93125,Paraguay,"Asuncion, Paraguay",-25.2667,-57.6667,5
1851,1528,"Montevideo, Uruguay","Montevideo, Uruguay",-56.1645,-34.9011,8,latlong.net,Capital,,79448,Uruguay,Montevideo,-34.8581,-56.1708,5
1891,1529,"Port-au-Prince, Haiti","Port-au-Prince, Haiti",-72.3074,18.5944,8,latlong.net,Capital,,156456,Haiti,Port-au-Prince,18.5392,-72.335,5
1888,1530,Haiti (Artibonite [ADM1] and Ouest [ADM1]),Centroid of > ADM1,-35.7504,23.9482,5,ArcGIS and GADM,> ADM1,Dual event; Contiguous ADM1s,163729,"Port of St.Marc, Port au Prince",Port-au-Prince,18.5392,-72.335,1
1882,1531,"Port Au Prince, Haiti","Port Au Prince, Haiti",-72.3074,18.5944,1,latlong.net,Precise location text,,156456,"Port-au-Prince, Haiti",Port-au-Prince,18.5392,-72.335,1
1869,1532,"Puerto Plata, Dominican Republic","Puerto Plata, Dominican Republic",-70.6871,19.7808,8,latlong.net,Capital,,157899,Dominican Republic,Puerta Plata,19.8,-70.6833,5
1876,1533,El Salvador-Guatemala Border,Midpoint of shared (national) border,-89.709,14.1462,5,ArcGIS and cShapes,Point along a line,Uses 1946 data,149941,Guatemalan-Salvadoran border,"Ahuachapan, El Sal",13.9167,-89.85,4
1890,1534,El Salvador-Guatemala Border,Midpoint of shared (national) border,-89.709,14.1462,5,ArcGIS and cShapes,Point along a line,Uses 1946 data,149941,Guatemalan-Salvadoran border,"Ahuachapan, El Sal",13.9167,-89.85,4
1885,1535,El Salvador-Guatemala Border,Midpoint of shared (national) border,-89.709,14.1462,5,ArcGIS and cShapes,Point along a line,Uses 1946 data,149941,,gua-sal border,14.173,-89.519,4
1840,1540,Douro River,Midpoint of river,-7.28269,41.1604,5,ArcGIS and Natural Earth Data,Point along a line,,188986,"Douro river, Portugal",Oporto,41.15,-8.61667,4
1893,1541,Mexico-United States (Texas [ADM1]) Border,Midpoint of shared (subnational) border,-101.37,29.6701,5,ArcGIS and GADM,Point along a line,,172238,Texas border,"Ciudad Acuna, Mexico",29.3,-100.917,4
1886,1542,"Tampico, Mexico","Tampico, Mexico",-97.8611,22.2331,1,latlong.net,Precise location text,,161445,"Tampico, Mexico",Tampico,21.6667,-98.65,1
1880,1543,Rio Grande,Midpoint of river,-63.3188,-18.8199,5,ArcGIS and Natural Earth Data,Point along a line,,102474,Rio Grande,"Rio Grande, Bolivia",-21.7333,-65.8167,4
1876,1544,Mexico-United States (Texas [ADM1]) Border,Midpoint of shared (subnational) border,-101.37,29.6701,5,ArcGIS and GADM,Point along a line,,172238,Texas-Mexican border,"Ciudad Acuna, Mexico",29.3,-100.917,4
1875,1545,"Las Cuevas, Trinidad and Tobago","Las Cuevas, Trinidad and Tobago",-61.3888,10.7838,1,latlong.net,Precise location text,,144958,"Las Cuevas, Trinidad and Tobago",Las Cuevas,10.7833,-61.3833,1
1873,1547,"El Remolino, Coah., Mexico","El Remolino, Coah., Mexico",-101.082,28.7566,1,latlong.net,Precise location text,,170798,Remolina,"Remolinos, Mexico",17.65,-94.2167,1
1859,1548,Rio Grande,Midpoint of river,-47.3801,-20.0754,5,ArcGIS and Natural Earth Data,Point along a line,,100346,Rio Grande,"Rio Grande, Brazil",-20.3333,-51.2833,4
1860,1549,"Veracruz, Mexico","Veracruz, Mexico",-96.1342,19.1738,1,latlong.net,Precise location text,,157128,"Vera Cruz, Mexico",Veracruz,31.4472,-112.358,1
1855,1550,Mexico-United States (Texas [ADM1]) Border,Midpoint of shared (subnational) border,-101.37,29.6701,5,ArcGIS and GADM,Point along a line,,172238,Texas-Mexico border,"Ciudad Acuna, Mexico",29.3,-100.917,4
1850,1551,Mexico (Yucatan [ADM1]),Centroid of ADM1,-88.9256,20.7803,4,ArcGIS and GADM,ADM1,,159303,"Yucatan, Mexico",Yucatan Peninsula,19.5,-89,3
1843,1552,United States (Texas [ADM1]),Centroid of ADM1,-99.358,31.4911,4,ArcGIS and GADM,ADM1,,174402,Texas,"Austin, USA",30.2833,-97.7333,3
1838,1553,Gulf of Mexico,Gulf of Mexico,-90.0659,25.3043,4,latlong.net,Gulf,,165780,Gulf of Mexico,Center of Gulf,25,-90,5
1836,1554,Argentina (Santa Cruz [ADM1]),Centroid of ADM1,-69.9414,-48.8127,4,ArcGIS and GADM,ADM1,,59261,"Veracruz, Brasos de Santiago",Veracruz,31.4472,-112.358,1
1836,1555,United States (Texas [ADM1]),Centroid of ADM1,-99.358,31.4911,4,ArcGIS and GADM,ADM1,,174402,Texas,"Austin, USA",30.2833,-97.7333,3
1839,1556,Gulf of Mexico,Gulf of Mexico,-90.0659,25.3043,4,latlong.net,Gulf,,165780,Gulf of Mexico,Center of Gulf,25,-90,5
1898,1557,"Havana, Cuba","Havana, Cuba",-82.3666,23.1136,8,latlong.net,Capital,,162916,Cuba,Havana,23.1319,-82.3642,5
1864,1563,Peru,Centroid of ADM0,-74.3756,-9.16376,6,ArcGIS and cShapes,State,Uses 1946 data,116132,,peru,-16.7,-70.25,5
1855,1564,"Havana, Cuba","Havana, Cuba",-82.3666,23.1136,8,latlong.net,Capital,,162916,Cuba,Havana,23.1319,-82.3642,5
1854,1565,"Havana, Cuba","Havana, Cuba",-82.3666,23.1136,8,latlong.net,Capital,,162916,Cuba,Havana,23.1319,-82.3642,5
1850,1566,"Havana, Cuba","Havana, Cuba",-82.3666,23.1136,8,latlong.net,Capital,,162916,Cuba,Havana,23.1319,-82.3642,5
1818,1567,United States (Florida [ADM1]),Centroid of ADM1,-82.4849,28.6407,4,ArcGIS and GADM,ADM1,,170836,Florida,center pt of FL,28.0342,-81.5375,3
1896,1569,"Iraklion, Greece","Iraklion, Greece",25.1442,35.3387,8,latlong.net,Capital,,180411,Crete,"Iraklion, Greece",37.8,22.7167,5
1882,1571,"Karalli, Turkey","Karalli, Turkey",33.8694,40.2848,1,latlong.net,Precise location text,,187628,Karalih,"Karalli, Turkey",40.3,33.8833,1
1878,1573,Greece (Thessaly [ADM1]),Centroid of ADM1,22.5402,39.0728,4,ArcGIS and GADM,ADM1,,186166,Thessaly,Thessalia,39.5,22,3
1877,1574,Greece (Thessaly [ADM1]),Centroid of ADM1,22.5402,39.0728,4,ArcGIS and GADM,ADM1,,186166,Thessally,Thessalia,39.5,22,3
1868,1575,"Iraklion, Greece","Iraklion, Greece",25.1442,35.3387,8,latlong.net,Capital,,180411,Crete,"Iraklion, Greece",37.8,22.7167,5
1866,1576,Greece (Thessaly [ADM1]),Centroid of ADM1,22.5402,39.0728,4,ArcGIS and GADM,ADM1,,186166,Thessaly,Thessalia,39.5,22,3
1829,1579,"Petra, Greece","Petra, Greece",26.1753,39.3278,1,latlong.net,Precise location text,,186173,Petra Greece,Petra,38.7333,21.65,1
1859,1580,Morocco (Northern [> ADM 1]),Centroid of > ADM1,-5.2002,32.9735,5,ArcGIS and GADM,> ADM1,,176750,Northern Morocco,Tangier,35.7847,-5.81278,3
1893,1581,"Melilla, Spain","Melilla, Spain",-2.9381,35.2923,2,latlong.net,Near,,180355,Near Melilla in Morocco,"Melilla, Spain",35.3167,-2.95,2
1846,1586,"Corrientes, Argentina","Corrientes, Argentina",-58.8306,-27.4692,1,latlong.net,Precise location text,,90243,"Parana River, Corrientes","Corrientes, Argentina",-27.4667,-58.8333,4
1850,1587,Rio Paraguay,"Asuncion, Paraguay",-57.5759,-25.2637,5,MIDLOC1.1 and latlong.net,Point along a line,,93125,Rio Paraguay,"Asuncion, Paraguay",-25.2667,-57.6667,4
1855,1588,Rio Paraguay,"Asuncion, Paraguay",-57.5759,-25.2637,5,MIDLOC1.1 and latlong.net,Point along a line,,93125,"Salinas, Rio Paraguay","Asuncion, Paraguay",-25.2667,-57.6667,4
1862,1589,"Humaita, Paraguay","Humaita, Paraguay",-58.5058,-27.0669,1,latlong.net,Precise location text,,90243,"Humaita, Rio Paraguay","Humaita, Paraguay",-27.05,-58.55,1
1863,1590,Brazil-Paraguay Border,Midpoint of shared (national) border,-55.7422,-22.4135,5,ArcGIS and cShapes,Point along a line,Uses 1946 data,97449,,bra-par border,-23.65,-55.17,4
1858,1593,Gulf of Guayaquil,Gulf of Guayaquil,-80.5,-3,4,latlong.net,Gulf,,124760,Gulf of Guayaquil,"Port of Guayaquil, Ecuador",-2.28333,-79.9,2
1859,1594,"Guayaquil, Ecuador","Guayaquil, Ecuador",-79.9224,-2.171,1,latlong.net,Precise location text,,126201,"Guayaquil, Ecuador","Guayaquil, Ecuador",-2.16667,-79.9,1
1862,1595,Unspecified,,,,-99,,Location unclear or unspecified,,0,.,,,,7
1893,1596,"Oriente, Ecuador","Oriente, Ecuador",-77,-2,5,MIDLOC1.1,> ADM1,,126207,Oriente,"Oriente, Ecuador",-2,-77,1
1899,1597,"Amazon Basin, Brazil","Amazon Basin, Brazil",-61.6784,-1.6566,5,latlong.net,> ADM1,,126957,Amazon Basin,"Amazon Basin, Brazil",-2.5,-60,4
1912,1598,"Puerto Pizarro, Peru","Puerto Pizarro, Peru",-80.3909,-3.50371,1,latlong.net,Precise location text,,124040,"Puerto Pizarro, Rio Caqueta","Rio Caqueta, Brazil",-3.13333,-64.7667,4
1889,1599,Haiti,Centroid of ADM0,-72.6795,18.9416,6,ArcGIS and cShapes,State,Uses 1946 data,156455,,haiti,19.11,-72.54,5
1866,1600,Argentina-Bolivia Border,Midpoint of shared (national) border,-64.6961,-22.178,5,ArcGIS and cShapes,Point along a line,Uses 1946 data,97431,Bolvian-Argentinian border,"Villazon, Bolivia",-22.1,-65.6,4
1887,1601,Rio Paraguay,"Asuncion, Paraguay",-57.5759,-25.2637,5,MIDLOC1.1 and latlong.net,Point along a line,,93125,Rio Paraguay,"Asuncion, Paraguay",-25.2667,-57.6667,4
1949,1603,Lebanon-Syria Border,Midpoint of shared (national) border,36.3348,33.9818,5,ArcGIS and cShapes,Point along a line,,178273,Syria Lebanon border,"Az Zabadani, Syria",33.7167,36.0833,4
1970,1605,Cambodia (Preah Vihear [ADM1]),Centroid of ADM1,105.008,13.798,4,ArcGIS and GADM,ADM1,,149611,Preah Vihear,"Preah Vihear, Cambodia",14.4,104.683,1
1965,1608,"Alto Palena, Chile","Palena, Chile",-71.8,-43.6167,1,latlong.net,Precise location text,,66457,Alto Palena,"Alto Palena, Chile",-43.6167,-71.8,1
1967,1609,Beagle Channel,Beagle Channel,-67.8349,-54.8899,3,latlong.net,Channel,,50625,Beagle Channel,"Beagle Channel, Argentina",-54.8833,-68.1667,4
1968,1610,Cambodia (Preah Vihear [ADM1]),Centroid of ADM1,105.008,13.798,4,ArcGIS and GADM,ADM1,,149611,Preah Vihear,"Preah Vihear, Cambodia",14.4,104.683,1
1972,1612,Iraq-Kuwait Border,Midpoint of shared (national) border,47.0836,29.8809,5,ArcGIS and cShapes,Point along a line,,172535,,md point of IRQ-KUW border,29.7,47.24,4
1975,1613,Iraq-Kuwait Border,Midpoint of shared (national) border,47.0836,29.8809,5,ArcGIS and cShapes,Point along a line,,172535,Iraq-Kuwait border,"Safwan, Iraq",30.1125,47.7156,4
1941,1614,Unspecified,,,,-99,,Location unclear or unspecified,,0,.,,,,7
1826,1622,Brazil Territorial Waters,Centroid of territorial waters,-39.2861,-18.0191,3,ArcGIS and Marine Regions,Territorial waters,,103242,Brazilian waters,"Salvador, Brazil",-12.9833,-38.5167,4
1836,1623,"Panama City, Panama","Panama City, Panama",-79.5199,8.98238,8,latlong.net,Capital,,142041,Panama,Panama City,8.96667,-79.5333,5
1845,1625,Atlantic Ocean,Atlantic Ocean,-28.6731,-14.5994,6,latlong.net,Ocean,,108303,Atlantic Ocean,mid pt of ocean,16.4142,-37.5764,5
1849,1627,Brazil Territorial Waters,Centroid of territorial waters,-39.2861,-18.0191,3,ArcGIS and Marine Regions,Territorial waters,,103242,Brazilian coastal forts and waters,mid pt of coastline,-8.16028,-34.9839,4
1858,1628,Venezuela,Midpoint of coastline,-63.8722,10.6422,5,ArcGIS and cShapes,Point along a line,Uses 1946 data,144953,,venezuela cost,10.23,-64.71,4
1859,1629,"Buenos Aires, Argentina","Buenos Aires, Argentina",-58.3816,-34.6037,1,latlong.net,Precise location text,,79444,"Buenos Aires, Argentina",Buenos Aires,-34.5875,-58.6725,1
